{
"type": "FeatureCollection",
"features": [
{ "type": "Feature", "properties": { "STORE_NAME": "역삼아레나빌딩", "STORE_TYPE": "general", "ADDRESS": "서울특별시 강남구 언주로 425 (역삼동)", "SIG_CD": "11680", "SIG_KOR_NM": "강남구" }, "geometry": { "type": "Point", "coordinates": [ 127.043069, 37.501087 ] } },
{ "type": "Feature", "properties": { "STORE_NAME": "논현역사거리", "STORE_TYPE": "general", "ADDRESS": "서울특별시 강남구 강남대로 538 (논현동)", "SIG_CD": "11680", "SIG_KOR_NM": "강남구" }, "geometry": { "type": "Point", "coordinates": [ 127.022223, 37.510178 ] } },
{ "type": "Feature", "properties": { "STORE_NAME": "국기원사거리", "STORE_TYPE": "general", "ADDRESS": "서울특별시 강남구 테헤란로 125 (역삼동)", "SIG_CD": "11680", "SIG_KOR_NM": "강남구" }, "geometry": { "type": "Point", "coordinates": [ 127.031495, 37.499517 ] } },
{ "type": "Feature", "properties": { "STORE_NAME": "대치대원빌딩R", "STORE_TYPE": "reserve", "ADDRESS": "서울특별시 강남구 남부순환로 2947 (대치동)", "SIG_CD": "11680", "SIG_KOR_NM": "강남구" }, "geometry": { "type": "Point", "coordinates": [ 127.062583, 37.494668 ] } },
{ "type": "Feature", "properties": { "STORE_NAME": "삼성역섬유센터R", "STORE_TYPE": "reserve", "ADDRESS": "서울특별시 강남구 테헤란로 518 (대치동)", "SIG_CD": "11680", "SIG_KOR_NM": "강남구" }, "geometry": { "type": "Point", "coordinates": [ 127.060651, 37.50775 ] } },
{ "type": "Feature", "properties": { "STORE_NAME": "압구정R", "STORE_TYPE": "reserve", "ADDRESS": "서울특별시 강남구 언주로 861 (신사동)", "SIG_CD": "11680", "SIG_KOR_NM": "강남구" }, "geometry": { "type": "Point", "coordinates": [ 127.033061, 37.5273669 ] } },
{ "type": "Feature", "properties": { "STORE_NAME": "수서역R", "STORE_TYPE": "reserve", "ADDRESS": "서울특별시 강남구 광평로 281 (수서동)", "SIG_CD": "11680", "SIG_KOR_NM": "강남구" }, "geometry": { "type": "Point", "coordinates": [ 127.10265, 37.488008 ] } },
{ "type": "Feature", "properties": { "STORE_NAME": "양재강남빌딩R", "STORE_TYPE": "reserve", "ADDRESS": "서울특별시 강남구 남부순환로 2621 (도곡동)", "SIG_CD": "11680", "SIG_KOR_NM": "강남구" }, "geometry": { "type": "Point", "coordinates": [ 127.036685, 37.485192 ] } },
{ "type": "Feature", "properties": { "STORE_NAME": "선릉동신빌딩R", "STORE_TYPE": "reserve", "ADDRESS": "서울특별시 강남구 테헤란로 409 (삼성동)", "SIG_CD": "11680", "SIG_KOR_NM": "강남구" }, "geometry": { "type": "Point", "coordinates": [ 127.050409, 37.505321 ] } },
{ "type": "Feature", "properties": { "STORE_NAME": "봉은사로선정릉", "STORE_TYPE": "general", "ADDRESS": "서울특별시 강남구 봉은사로 446 (삼성동)", "SIG_CD": "11680", "SIG_KOR_NM": "강남구" }, "geometry": { "type": "Point", "coordinates": [ 127.048409, 37.511293 ] } },
{ "type": "Feature", "properties": { "STORE_NAME": "강남오거리", "STORE_TYPE": "general", "ADDRESS": "서울특별시 강남구 봉은사로2길 39 (역삼동)", "SIG_CD": "11680", "SIG_KOR_NM": "강남구" }, "geometry": { "type": "Point", "coordinates": [ 127.026672, 37.502117 ] } },
{ "type": "Feature", "properties": { "STORE_NAME": "스타필드코엑스몰R", "STORE_TYPE": "reserve", "ADDRESS": "서울특별시 강남구 영동대로 513 (삼성동)", "SIG_CD": "11680", "SIG_KOR_NM": "강남구" }, "geometry": { "type": "Point", "coordinates": [ 127.061455, 37.50999 ] } },
{ "type": "Feature", "properties": { "STORE_NAME": "강남구청정문", "STORE_TYPE": "general", "ADDRESS": "서울특별시 강남구 학동로 419 (청담동)", "SIG_CD": "11680", "SIG_KOR_NM": "강남구" }, "geometry": { "type": "Point", "coordinates": [ 127.045995, 37.518181 ] } },
{ "type": "Feature", "properties": { "STORE_NAME": "도곡공원", "STORE_TYPE": "general", "ADDRESS": "서울특별시 강남구 도곡로 205 (역삼동)", "SIG_CD": "11680", "SIG_KOR_NM": "강남구" }, "geometry": { "type": "Point", "coordinates": [ 127.041309, 37.492805 ] } },
{ "type": "Feature", "properties": { "STORE_NAME": "강남R", "STORE_TYPE": "reserve", "ADDRESS": "서울특별시 강남구 강남대로 390 (역삼동)", "SIG_CD": "11680", "SIG_KOR_NM": "강남구" }, "geometry": { "type": "Point", "coordinates": [ 127.028439, 37.497711 ] } },
{ "type": "Feature", "properties": { "STORE_NAME": "대치은마사거리", "STORE_TYPE": "general", "ADDRESS": "서울특별시 강남구 도곡로 457 (대치동)", "SIG_CD": "11680", "SIG_KOR_NM": "강남구" }, "geometry": { "type": "Point", "coordinates": [ 127.060172, 37.498973 ] } },
{ "type": "Feature", "properties": { "STORE_NAME": "청담영동대로", "STORE_TYPE": "general", "ADDRESS": "서울특별시 강남구 영동대로 720 (청담동)", "SIG_CD": "11680", "SIG_KOR_NM": "강남구" }, "geometry": { "type": "Point", "coordinates": [ 127.056449, 37.522156 ] } },
{ "type": "Feature", "properties": { "STORE_NAME": "압구정", "STORE_TYPE": "general", "ADDRESS": "서울특별시 강남구 압구정로30길 17 (신사동)", "SIG_CD": "11680", "SIG_KOR_NM": "강남구" }, "geometry": { "type": "Point", "coordinates": [ 127.02956, 37.526283 ] } },
{ "type": "Feature", "properties": { "STORE_NAME": "신사가로수", "STORE_TYPE": "general", "ADDRESS": "서울특별시 강남구 압구정로12길 32 (신사동)", "SIG_CD": "11680", "SIG_KOR_NM": "강남구" }, "geometry": { "type": "Point", "coordinates": [ 127.02251, 37.521852 ] } },
{ "type": "Feature", "properties": { "STORE_NAME": "청담스타R", "STORE_TYPE": "reserve", "ADDRESS": "서울특별시 강남구 도산대로57길 24 (청담동)", "SIG_CD": "11680", "SIG_KOR_NM": "강남구" }, "geometry": { "type": "Point", "coordinates": [ 127.041827, 37.525216 ] } },
{ "type": "Feature", "properties": { "STORE_NAME": "강남우성", "STORE_TYPE": "general", "ADDRESS": "서울특별시 강남구 강남대로 328 (역삼동)", "SIG_CD": "11680", "SIG_KOR_NM": "강남구" }, "geometry": { "type": "Point", "coordinates": [ 127.03091, 37.492396 ] } },
{ "type": "Feature", "properties": { "STORE_NAME": "학동사거리", "STORE_TYPE": "general", "ADDRESS": "서울특별시 강남구 도산대로 328 (논현동) HS빌딩", "SIG_CD": "11680", "SIG_KOR_NM": "강남구" }, "geometry": { "type": "Point", "coordinates": [ 127.0379543, 37.522364499999988 ] } },
{ "type": "Feature", "properties": { "STORE_NAME": "대치사거리", "STORE_TYPE": "general", "ADDRESS": "서울특별시 강남구 삼성로 402 (대치동)", "SIG_CD": "11680", "SIG_KOR_NM": "강남구" }, "geometry": { "type": "Point", "coordinates": [ 127.058817, 37.503331 ] } },
{ "type": "Feature", "properties": { "STORE_NAME": "포스코사거리", "STORE_TYPE": "general", "ADDRESS": "서울특별시 강남구 테헤란로 505 (삼성동) 화진빌딩", "SIG_CD": "11680", "SIG_KOR_NM": "강남구" }, "geometry": { "type": "Point", "coordinates": [ 127.0574271, 37.5075307 ] } },
{ "type": "Feature", "properties": { "STORE_NAME": "을지병원사거리", "STORE_TYPE": "general", "ADDRESS": "서울특별시 강남구 논현로 752 (논현동,구산빌딩)", "SIG_CD": "11680", "SIG_KOR_NM": "강남구" }, "geometry": { "type": "Point", "coordinates": [ 127.0286446, 37.5191632 ] } },
{ "type": "Feature", "properties": { "STORE_NAME": "신사역", "STORE_TYPE": "general", "ADDRESS": "서울특별시 강남구 도산대로 108 (논현동) 렉스타워", "SIG_CD": "11680", "SIG_KOR_NM": "강남구" }, "geometry": { "type": "Point", "coordinates": [ 127.0207428, 37.5162021 ] } },
{ "type": "Feature", "properties": { "STORE_NAME": "도곡역", "STORE_TYPE": "general", "ADDRESS": "서울특별시 강남구 남부순환로 2909 (대치동)", "SIG_CD": "11680", "SIG_KOR_NM": "강남구" }, "geometry": { "type": "Point", "coordinates": [ 127.057398, 37.492167 ] } },
{ "type": "Feature", "properties": { "STORE_NAME": "서울세관사거리", "STORE_TYPE": "general", "ADDRESS": "서울특별시 강남구 언주로 650 (논현동) 한국건설기술인협회", "SIG_CD": "11680", "SIG_KOR_NM": "강남구" }, "geometry": { "type": "Point", "coordinates": [ 127.035653, 37.514887 ] } },
{ "type": "Feature", "properties": { "STORE_NAME": "청담사거리", "STORE_TYPE": "reserve", "ADDRESS": "서울특별시 강남구 도산대로 458 (청담동) 리츠타워", "SIG_CD": "11680", "SIG_KOR_NM": "강남구" }, "geometry": { "type": "Point", "coordinates": [ 127.0468651, 37.5236351 ] } },
{ "type": "Feature", "properties": { "STORE_NAME": "한티역", "STORE_TYPE": "general", "ADDRESS": "서울특별시 강남구 도곡로 408, 디마크빌딩 101호 (대치동)", "SIG_CD": "11680", "SIG_KOR_NM": "강남구" }, "geometry": { "type": "Point", "coordinates": [ 127.055055, 37.496801 ] } },
{ "type": "Feature", "properties": { "STORE_NAME": "역삼초교사거리", "STORE_TYPE": "general", "ADDRESS": "서울특별시 강남구 역삼로 123 (역삼동)", "SIG_CD": "11680", "SIG_KOR_NM": "강남구" }, "geometry": { "type": "Point", "coordinates": [ 127.0329973, 37.4941059 ] } },
{ "type": "Feature", "properties": { "STORE_NAME": "코엑스몰", "STORE_TYPE": "general", "ADDRESS": "서울특별시 강남구 영동대로 513 (삼성동) 코엑스", "SIG_CD": "11680", "SIG_KOR_NM": "강남구" }, "geometry": { "type": "Point", "coordinates": [ 127.059024, 37.511921 ] } },
{ "type": "Feature", "properties": { "STORE_NAME": "가로수길", "STORE_TYPE": "general", "ADDRESS": "서울특별시 강남구 논현로175길 94, 1~2층 (신사동)", "SIG_CD": "11680", "SIG_KOR_NM": "강남구" }, "geometry": { "type": "Point", "coordinates": [ 127.021625, 37.5231593 ] } },
{ "type": "Feature", "properties": { "STORE_NAME": "역삼대로", "STORE_TYPE": "general", "ADDRESS": "서울특별시 강남구 테헤란로 211, 한국고등교육재단빌딩 1층 (역삼동)", "SIG_CD": "11680", "SIG_KOR_NM": "강남구" }, "geometry": { "type": "Point", "coordinates": [ 127.039375, 37.501623 ] } },
{ "type": "Feature", "properties": { "STORE_NAME": "역삼포스코", "STORE_TYPE": "general", "ADDRESS": "서울특별시 강남구 테헤란로 134, P&amp;S TOWER (역삼동)", "SIG_CD": "11680", "SIG_KOR_NM": "강남구" }, "geometry": { "type": "Point", "coordinates": [ 127.033582, 37.499721 ] } },
{ "type": "Feature", "properties": { "STORE_NAME": "강남대로", "STORE_TYPE": "general", "ADDRESS": "서울특별시 강남구 강남대로 456, 한석타워 2층 1-2호 (역삼동)", "SIG_CD": "11680", "SIG_KOR_NM": "강남구" }, "geometry": { "type": "Point", "coordinates": [ 127.025546, 37.50314 ] } },
{ "type": "Feature", "properties": { "STORE_NAME": "청담", "STORE_TYPE": "general", "ADDRESS": "서울특별시 강남구 도산대로 532, 인희빌딩 1층 (청담동)", "SIG_CD": "11680", "SIG_KOR_NM": "강남구" }, "geometry": { "type": "Point", "coordinates": [ 127.0515599, 37.5243631 ] } },
{ "type": "Feature", "properties": { "STORE_NAME": "삼성도심공항", "STORE_TYPE": "general", "ADDRESS": "서울특별시 강남구 테헤란로87길 33 (삼성동)", "SIG_CD": "11680", "SIG_KOR_NM": "강남구" }, "geometry": { "type": "Point", "coordinates": [ 127.0579134, 37.509786299999988 ] } },
{ "type": "Feature", "properties": { "STORE_NAME": "삼성교", "STORE_TYPE": "general", "ADDRESS": "서울특별시 강남구 영동대로86길 12, ,9,10번지 동남유화빌딩 (대치동)", "SIG_CD": "11680", "SIG_KOR_NM": "강남구" }, "geometry": { "type": "Point", "coordinates": [ 127.06517, 37.507794 ] } },
{ "type": "Feature", "properties": { "STORE_NAME": "학동역", "STORE_TYPE": "reserve", "ADDRESS": "서울특별시 강남구 논현로 704 (논현동)", "SIG_CD": "11680", "SIG_KOR_NM": "강남구" }, "geometry": { "type": "Point", "coordinates": [ 127.0307302, 37.51464884 ] } },
{ "type": "Feature", "properties": { "STORE_NAME": "대치", "STORE_TYPE": "general", "ADDRESS": "서울특별시 강남구 도곡로 511 (대치동)", "SIG_CD": "11680", "SIG_KOR_NM": "강남구" }, "geometry": { "type": "Point", "coordinates": [ 127.0622171, 37.49966175 ] } },
{ "type": "Feature", "properties": { "STORE_NAME": "기술센터", "STORE_TYPE": "general", "ADDRESS": "서울특별시 강남구 테헤란로 305, 한국기술센터 1층 (역삼동)", "SIG_CD": "11680", "SIG_KOR_NM": "강남구" }, "geometry": { "type": "Point", "coordinates": [ 127.0436409, 37.50329211 ] } },
{ "type": "Feature", "properties": { "STORE_NAME": "SSG마켓도곡R", "STORE_TYPE": "reserve", "ADDRESS": "서울특별시 강남구 언주로30길 57, 타워팰리스Ⅱ F 지하1층 (도곡동)", "SIG_CD": "11680", "SIG_KOR_NM": "강남구" }, "geometry": { "type": "Point", "coordinates": [ 127.054895, 37.490298 ] } },
{ "type": "Feature", "properties": { "STORE_NAME": "삼성", "STORE_TYPE": "general", "ADDRESS": "서울특별시 강남구 테헤란로 443, 애플트리타워 1층 (삼성동)", "SIG_CD": "11680", "SIG_KOR_NM": "강남구" }, "geometry": { "type": "Point", "coordinates": [ 127.0555503, 37.50703529 ] } },
{ "type": "Feature", "properties": { "STORE_NAME": "선릉세화빌딩", "STORE_TYPE": "general", "ADDRESS": "서울특별시 강남구 테헤란로64길 18, 세화빌딩 1층 (대치동)", "SIG_CD": "11680", "SIG_KOR_NM": "강남구" }, "geometry": { "type": "Point", "coordinates": [ 127.051196, 37.50377562 ] } },
{ "type": "Feature", "properties": { "STORE_NAME": "압구정역", "STORE_TYPE": "general", "ADDRESS": "서울특별시 강남구 압구정로 170, 관영빌딩 1층 지하1층 (신사동)", "SIG_CD": "11680", "SIG_KOR_NM": "강남구" }, "geometry": { "type": "Point", "coordinates": [ 127.0281105, 37.52674095 ] } },
{ "type": "Feature", "properties": { "STORE_NAME": "압구정로", "STORE_TYPE": "general", "ADDRESS": "서울특별시 강남구 압구정로42길 32 (신사동)", "SIG_CD": "11680", "SIG_KOR_NM": "강남구" }, "geometry": { "type": "Point", "coordinates": [ 127.0347174, 37.52680046 ] } },
{ "type": "Feature", "properties": { "STORE_NAME": "구역삼사거리", "STORE_TYPE": "general", "ADDRESS": "서울특별시 강남구 논현로 401 (역삼동)", "SIG_CD": "11680", "SIG_KOR_NM": "강남구" }, "geometry": { "type": "Point", "coordinates": [ 127.0388645, 37.49592355 ] } },
{ "type": "Feature", "properties": { "STORE_NAME": "큰길타워", "STORE_TYPE": "general", "ADDRESS": "서울특별시 강남구 테헤란로 223, 큰길타워빌딩 (역삼동)", "SIG_CD": "11680", "SIG_KOR_NM": "강남구" }, "geometry": { "type": "Point", "coordinates": [ 127.0407, 37.50236693 ] } },
{ "type": "Feature", "properties": { "STORE_NAME": "강남구청역", "STORE_TYPE": "general", "ADDRESS": "서울특별시 강남구 선릉로 669, 웰빙센터 1층 (논현동)", "SIG_CD": "11680", "SIG_KOR_NM": "강남구" }, "geometry": { "type": "Point", "coordinates": [ 127.0412433, 37.5165849 ] } },
{ "type": "Feature", "properties": { "STORE_NAME": "대치역", "STORE_TYPE": "general", "ADDRESS": "서울특별시 강남구 남부순환로 2936, 원플러스 상가107호 (대치동)", "SIG_CD": "11680", "SIG_KOR_NM": "강남구" }, "geometry": { "type": "Point", "coordinates": [ 127.061874, 37.493554 ] } },
{ "type": "Feature", "properties": { "STORE_NAME": "포이", "STORE_TYPE": "general", "ADDRESS": "서울특별시 강남구 논현로 88 (개포동)", "SIG_CD": "11680", "SIG_KOR_NM": "강남구" }, "geometry": { "type": "Point", "coordinates": [ 127.0451411, 37.47781106 ] } },
{ "type": "Feature", "properties": { "STORE_NAME": "아크플레이스", "STORE_TYPE": "general", "ADDRESS": "서울특별시 강남구 테헤란로 142 (역삼동)", "SIG_CD": "11680", "SIG_KOR_NM": "강남구" }, "geometry": { "type": "Point", "coordinates": [ 127.0349084, 37.49971982 ] } },
{ "type": "Feature", "properties": { "STORE_NAME": "학여울역", "STORE_TYPE": "general", "ADDRESS": "서울특별시 강남구 영동대로 215 (대치동)", "SIG_CD": "11680", "SIG_KOR_NM": "강남구" }, "geometry": { "type": "Point", "coordinates": [ 127.0684943, 37.49803646 ] } },
{ "type": "Feature", "properties": { "STORE_NAME": "선정릉역", "STORE_TYPE": "general", "ADDRESS": "서울특별시 강남구 봉은사로 407 (삼성동) 에프오빌딩", "SIG_CD": "11680", "SIG_KOR_NM": "강남구" }, "geometry": { "type": "Point", "coordinates": [ 127.0445597, 37.510754899999988 ] } },
{ "type": "Feature", "properties": { "STORE_NAME": "삼성현대힐", "STORE_TYPE": "general", "ADDRESS": "서울특별시 강남구 삼성로 605 (삼성동)", "SIG_CD": "11680", "SIG_KOR_NM": "강남구" }, "geometry": { "type": "Point", "coordinates": [ 127.0527183, 37.51354184 ] } },
{ "type": "Feature", "properties": { "STORE_NAME": "GS타워", "STORE_TYPE": "general", "ADDRESS": "서울특별시 강남구 논현로 508 (역삼동)", "SIG_CD": "11680", "SIG_KOR_NM": "강남구" }, "geometry": { "type": "Point", "coordinates": [ 127.037277599999896, 37.5018592 ] } },
{ "type": "Feature", "properties": { "STORE_NAME": "압구정미소", "STORE_TYPE": "general", "ADDRESS": "서울특별시 강남구 논현로 841 (신사동)", "SIG_CD": "11680", "SIG_KOR_NM": "강남구" }, "geometry": { "type": "Point", "coordinates": [ 127.027915, 37.52405601 ] } },
{ "type": "Feature", "properties": { "STORE_NAME": "선릉역", "STORE_TYPE": "general", "ADDRESS": "서울특별시 강남구 테헤란로 334, LG화재 빌딩 (역삼동)", "SIG_CD": "11680", "SIG_KOR_NM": "강남구" }, "geometry": { "type": "Point", "coordinates": [ 127.0485135, 37.50393894 ] } },
{ "type": "Feature", "properties": { "STORE_NAME": "수서", "STORE_TYPE": "general", "ADDRESS": "서울특별시 강남구 밤고개로1길 10 (수서동) 수서현대벤쳐빌 지하2층", "SIG_CD": "11680", "SIG_KOR_NM": "강남구" }, "geometry": { "type": "Point", "coordinates": [ 127.1017508, 37.48801132 ] } },
{ "type": "Feature", "properties": { "STORE_NAME": "코엑스사거리", "STORE_TYPE": "general", "ADDRESS": "서울특별시 강남구 영동대로 616 (삼성동)", "SIG_CD": "11680", "SIG_KOR_NM": "강남구" }, "geometry": { "type": "Point", "coordinates": [ 127.060109, 37.515351 ] } },
{ "type": "Feature", "properties": { "STORE_NAME": "역삼럭키", "STORE_TYPE": "general", "ADDRESS": "서울특별시 강남구 도곡로 183 (역삼동)", "SIG_CD": "11680", "SIG_KOR_NM": "강남구" }, "geometry": { "type": "Point", "coordinates": [ 127.039389, 37.492209 ] } },
{ "type": "Feature", "properties": { "STORE_NAME": "차병원사거리", "STORE_TYPE": "general", "ADDRESS": "서울특별시 강남구 봉은사로 213, 센트럴타워 (논현동)", "SIG_CD": "11680", "SIG_KOR_NM": "강남구" }, "geometry": { "type": "Point", "coordinates": [ 127.035373, 37.508032 ] } },
{ "type": "Feature", "properties": { "STORE_NAME": "청담공원", "STORE_TYPE": "general", "ADDRESS": "서울특별시 강남구 학동로 506 (삼성동)", "SIG_CD": "11680", "SIG_KOR_NM": "강남구" }, "geometry": { "type": "Point", "coordinates": [ 127.051438700000105, 37.5186549 ] } },
{ "type": "Feature", "properties": { "STORE_NAME": "신압구정", "STORE_TYPE": "general", "ADDRESS": "서울특별시 강남구 언주로174길 29 (신사동)", "SIG_CD": "11680", "SIG_KOR_NM": "강남구" }, "geometry": { "type": "Point", "coordinates": [ 127.036441, 37.528115 ] } },
{ "type": "Feature", "properties": { "STORE_NAME": "아크로힐스논현", "STORE_TYPE": "general", "ADDRESS": "서울특별시 강남구 봉은사로 304, 금강빌딩 1-2층 (역삼동)", "SIG_CD": "11680", "SIG_KOR_NM": "강남구" }, "geometry": { "type": "Point", "coordinates": [ 127.0403869, 37.50898041 ] } },
{ "type": "Feature", "properties": { "STORE_NAME": "뱅뱅사거리", "STORE_TYPE": "general", "ADDRESS": "서울특별시 강남구 강남대로 282 (도곡동)", "SIG_CD": "11680", "SIG_KOR_NM": "강남구" }, "geometry": { "type": "Point", "coordinates": [ 127.032415, 37.488585 ] } },
{ "type": "Feature", "properties": { "STORE_NAME": "강남비젼타워", "STORE_TYPE": "general", "ADDRESS": "서울특별시 강남구 테헤란로2길 27, 1층 101호 (역삼동)", "SIG_CD": "11680", "SIG_KOR_NM": "강남구" }, "geometry": { "type": "Point", "coordinates": [ 127.0296885, 37.496455700000013 ] } },
{ "type": "Feature", "properties": { "STORE_NAME": "역삼역", "STORE_TYPE": "reserve", "ADDRESS": "서울특별시 강남구 테헤란로 145, 우신빌딩 1층 (역삼동)", "SIG_CD": "11680", "SIG_KOR_NM": "강남구" }, "geometry": { "type": "Point", "coordinates": [ 127.0351577, 37.50080096 ] } },
{ "type": "Feature", "properties": { "STORE_NAME": "압구정로데오역", "STORE_TYPE": "reserve", "ADDRESS": "서울특별시 강남구 선릉로 836, 삼원빌딩 1,2층 (청담동)", "SIG_CD": "11680", "SIG_KOR_NM": "강남구" }, "geometry": { "type": "Point", "coordinates": [ 127.040437, 37.526549 ] } },
{ "type": "Feature", "properties": { "STORE_NAME": "르네상스사거리", "STORE_TYPE": "general", "ADDRESS": "서울특별시 강남구 테헤란로 306 (역삼동)", "SIG_CD": "11680", "SIG_KOR_NM": "강남구" }, "geometry": { "type": "Point", "coordinates": [ 127.044308, 37.502721 ] } },
{ "type": "Feature", "properties": { "STORE_NAME": "포스코", "STORE_TYPE": "general", "ADDRESS": "서울특별시 강남구 삼성로86길 7, 1층 (대치동)", "SIG_CD": "11680", "SIG_KOR_NM": "강남구" }, "geometry": { "type": "Point", "coordinates": [ 127.057966, 37.50576 ] } },
{ "type": "Feature", "properties": { "STORE_NAME": "선릉로", "STORE_TYPE": "general", "ADDRESS": "서울특별시 강남구 선릉로93길 22, 대흥빌딩 1층 (역삼동)", "SIG_CD": "11680", "SIG_KOR_NM": "강남구" }, "geometry": { "type": "Point", "coordinates": [ 127.046577, 37.505053 ] } },
{ "type": "Feature", "properties": { "STORE_NAME": "삼성역", "STORE_TYPE": "general", "ADDRESS": "서울특별시 강남구 테헤란로103길 9 (삼성동)", "SIG_CD": "11680", "SIG_KOR_NM": "강남구" }, "geometry": { "type": "Point", "coordinates": [ 127.063864, 37.510015 ] } },
{ "type": "Feature", "properties": { "STORE_NAME": "논현힐탑", "STORE_TYPE": "general", "ADDRESS": "서울특별시 강남구 논현로 648 (논현동)", "SIG_CD": "11680", "SIG_KOR_NM": "강남구" }, "geometry": { "type": "Point", "coordinates": [ 127.032262, 37.5115577 ] } },
{ "type": "Feature", "properties": { "STORE_NAME": "도산가로수길", "STORE_TYPE": "general", "ADDRESS": "서울특별시 강남구 도산대로 134, 2층 (논현동)", "SIG_CD": "11680", "SIG_KOR_NM": "강남구" }, "geometry": { "type": "Point", "coordinates": [ 127.023295700000105, 37.517362299999988 ] } },
{ "type": "Feature", "properties": { "STORE_NAME": "미아뉴타운", "STORE_TYPE": "general", "ADDRESS": "서울특별시 강북구 삼양로 161 (미아동)", "SIG_CD": "11305", "SIG_KOR_NM": "강북구" }, "geometry": { "type": "Point", "coordinates": [ 127.021072, 37.618319 ] } },
{ "type": "Feature", "properties": { "STORE_NAME": "강북구청사거리", "STORE_TYPE": "reserve", "ADDRESS": "서울특별시 강북구 도봉로 365 (수유동)", "SIG_CD": "11305", "SIG_KOR_NM": "강북구" }, "geometry": { "type": "Point", "coordinates": [ 127.0273766, 37.6400354 ] } },
{ "type": "Feature", "properties": { "STORE_NAME": "미아사거리역", "STORE_TYPE": "general", "ADDRESS": "서울특별시 강북구 도봉로 32 (미아동)", "SIG_CD": "11305", "SIG_KOR_NM": "강북구" }, "geometry": { "type": "Point", "coordinates": [ 127.0306971, 37.611809 ] } },
{ "type": "Feature", "properties": { "STORE_NAME": "수유역", "STORE_TYPE": "general", "ADDRESS": "서울특별시 강북구 도봉로 342 (번동)", "SIG_CD": "11305", "SIG_KOR_NM": "강북구" }, "geometry": { "type": "Point", "coordinates": [ 127.026135, 37.6380167 ] } },
{ "type": "Feature", "properties": { "STORE_NAME": "미아역", "STORE_TYPE": "general", "ADDRESS": "서울특별시 강북구 도봉로 196 (미아동)", "SIG_CD": "11305", "SIG_KOR_NM": "강북구" }, "geometry": { "type": "Point", "coordinates": [ 127.026578, 37.626148 ] } },
{ "type": "Feature", "properties": { "STORE_NAME": "발산역사거리", "STORE_TYPE": "general", "ADDRESS": "서울특별시 강서구 공항대로 248 (마곡동)", "SIG_CD": "11500", "SIG_KOR_NM": "강서구" }, "geometry": { "type": "Point", "coordinates": [ 126.835039, 37.558721 ] } },
{ "type": "Feature", "properties": { "STORE_NAME": "우장산역", "STORE_TYPE": "general", "ADDRESS": "서울특별시 강서구 강서로 267 (내발산동)", "SIG_CD": "11500", "SIG_KOR_NM": "강서구" }, "geometry": { "type": "Point", "coordinates": [ 126.835984, 37.54909 ] } },
{ "type": "Feature", "properties": { "STORE_NAME": "마곡사이언스타워R", "STORE_TYPE": "reserve", "ADDRESS": "서울특별시 강서구 마곡동로 62 (마곡동)", "SIG_CD": "11500", "SIG_KOR_NM": "강서구" }, "geometry": { "type": "Point", "coordinates": [ 126.833954, 37.561492 ] } },
{ "type": "Feature", "properties": { "STORE_NAME": "방화DT", "STORE_TYPE": "generalDT", "ADDRESS": "서울특별시 강서구 방화대로 375 (방화동)", "SIG_CD": "11500", "SIG_KOR_NM": "강서구" }, "geometry": { "type": "Point", "coordinates": [ 126.816415, 37.574339 ] } },
{ "type": "Feature", "properties": { "STORE_NAME": "마곡나루역", "STORE_TYPE": "general", "ADDRESS": "서울특별시 강서구 마곡중앙로 161-17 (마곡동)", "SIG_CD": "11500", "SIG_KOR_NM": "강서구" }, "geometry": { "type": "Point", "coordinates": [ 126.82614, 37.56813 ] } },
{ "type": "Feature", "properties": { "STORE_NAME": "마곡GMG", "STORE_TYPE": "general", "ADDRESS": "서울특별시 강서구 마곡중앙6로 16 (마곡동) 117,118,119,120호", "SIG_CD": "11500", "SIG_KOR_NM": "강서구" }, "geometry": { "type": "Point", "coordinates": [ 126.829667, 37.560487 ] } },
{ "type": "Feature", "properties": { "STORE_NAME": "가양역", "STORE_TYPE": "general", "ADDRESS": "서울특별시 강서구 양천로 476 (등촌동)", "SIG_CD": "11500", "SIG_KOR_NM": "강서구" }, "geometry": { "type": "Point", "coordinates": [ 126.853327, 37.56164 ] } },
{ "type": "Feature", "properties": { "STORE_NAME": "화곡DT", "STORE_TYPE": "generalDT", "ADDRESS": "서울특별시 강서구 등촌로 57 (화곡동)", "SIG_CD": "11500", "SIG_KOR_NM": "강서구" }, "geometry": { "type": "Point", "coordinates": [ 126.863232, 37.535149 ] } },
{ "type": "Feature", "properties": { "STORE_NAME": "양천향교역", "STORE_TYPE": "general", "ADDRESS": "서울특별시 강서구 강서로 463 (마곡동)", "SIG_CD": "11500", "SIG_KOR_NM": "강서구" }, "geometry": { "type": "Point", "coordinates": [ 126.840731, 37.566964 ] } },
{ "type": "Feature", "properties": { "STORE_NAME": "화곡동", "STORE_TYPE": "general", "ADDRESS": "서울특별시 강서구 화곡로 142(화곡동)", "SIG_CD": "11500", "SIG_KOR_NM": "강서구" }, "geometry": { "type": "Point", "coordinates": [ 126.8372413, 37.5405115 ] } },
{ "type": "Feature", "properties": { "STORE_NAME": "등촌", "STORE_TYPE": "general", "ADDRESS": "서울특별시 강서구 공항대로 329 (등촌동)", "SIG_CD": "11500", "SIG_KOR_NM": "강서구" }, "geometry": { "type": "Point", "coordinates": [ 126.844339199999894, 37.5582043 ] } },
{ "type": "Feature", "properties": { "STORE_NAME": "염창역", "STORE_TYPE": "general", "ADDRESS": "서울특별시 강서구 공항대로 627 (염창동)", "SIG_CD": "11500", "SIG_KOR_NM": "강서구" }, "geometry": { "type": "Point", "coordinates": [ 126.874436, 37.547359 ] } },
{ "type": "Feature", "properties": { "STORE_NAME": "발산역", "STORE_TYPE": "general", "ADDRESS": "서울특별시 강서구 강서로 388 (등촌동) 그랜드마트", "SIG_CD": "11500", "SIG_KOR_NM": "강서구" }, "geometry": { "type": "Point", "coordinates": [ 126.839279, 37.56033 ] } },
{ "type": "Feature", "properties": { "STORE_NAME": "가양이마트", "STORE_TYPE": "general", "ADDRESS": "서울특별시 강서구 양천로 559, 가양이마트 1층 (가양동)", "SIG_CD": "11500", "SIG_KOR_NM": "강서구" }, "geometry": { "type": "Point", "coordinates": [ 126.8622978, 37.5578966 ] } },
{ "type": "Feature", "properties": { "STORE_NAME": "까치산역", "STORE_TYPE": "general", "ADDRESS": "서울특별시 강서구 강서로13길 3 (화곡동)", "SIG_CD": "11500", "SIG_KOR_NM": "강서구" }, "geometry": { "type": "Point", "coordinates": [ 126.846077, 37.532303 ] } },
{ "type": "Feature", "properties": { "STORE_NAME": "낙성대역", "STORE_TYPE": "general", "ADDRESS": "서울특별시 관악구 남부순환로 1908 (봉천동)", "SIG_CD": "11620", "SIG_KOR_NM": "관악구" }, "geometry": { "type": "Point", "coordinates": [ 126.961246, 37.47798 ] } },
{ "type": "Feature", "properties": { "STORE_NAME": "관악서울대입구R", "STORE_TYPE": "reserve", "ADDRESS": "서울특별시 관악구 관악로 158 (봉천동)", "SIG_CD": "11620", "SIG_KOR_NM": "관악구" }, "geometry": { "type": "Point", "coordinates": [ 126.95278, 37.479343 ] } },
{ "type": "Feature", "properties": { "STORE_NAME": "신림DT", "STORE_TYPE": "generalDT", "ADDRESS": "서울특별시 관악구 남부순환로 1419 (신림동)", "SIG_CD": "11620", "SIG_KOR_NM": "관악구" }, "geometry": { "type": "Point", "coordinates": [ 126.908407, 37.480935 ] } },
{ "type": "Feature", "properties": { "STORE_NAME": "서울대역", "STORE_TYPE": "general", "ADDRESS": "서울특별시 관악구 남부순환로 1817 (봉천동)", "SIG_CD": "11620", "SIG_KOR_NM": "관악구" }, "geometry": { "type": "Point", "coordinates": [ 126.9522, 37.481599 ] } },
{ "type": "Feature", "properties": { "STORE_NAME": "낙성대DT", "STORE_TYPE": "generalDT", "ADDRESS": "서울특별시 관악구 남부순환로 1948 (봉천동)", "SIG_CD": "11620", "SIG_KOR_NM": "관악구" }, "geometry": { "type": "Point", "coordinates": [ 126.965005, 37.476169 ] } },
{ "type": "Feature", "properties": { "STORE_NAME": "사당", "STORE_TYPE": "reserve", "ADDRESS": "서울특별시 관악구 남부순환로 2082-25", "SIG_CD": "11620", "SIG_KOR_NM": "관악구" }, "geometry": { "type": "Point", "coordinates": [ 126.980997, 37.47601 ] } },
{ "type": "Feature", "properties": { "STORE_NAME": "보라매대교", "STORE_TYPE": "general", "ADDRESS": "서울특별시 관악구 보라매로3길 23, 대교빌딩 1층 (봉천동)", "SIG_CD": "11620", "SIG_KOR_NM": "관악구" }, "geometry": { "type": "Point", "coordinates": [ 126.925432, 37.491449 ] } },
{ "type": "Feature", "properties": { "STORE_NAME": "신림사거리", "STORE_TYPE": "general", "ADDRESS": "서울특별시 관악구 남부순환로 1619 (신림동)", "SIG_CD": "11620", "SIG_KOR_NM": "관악구" }, "geometry": { "type": "Point", "coordinates": [ 126.930467, 37.484768 ] } },
{ "type": "Feature", "properties": { "STORE_NAME": "신림", "STORE_TYPE": "general", "ADDRESS": "서울특별시 관악구 신림로 355-1 (신림동)", "SIG_CD": "11620", "SIG_KOR_NM": "관악구" }, "geometry": { "type": "Point", "coordinates": [ 126.9291602, 37.48609493 ] } },
{ "type": "Feature", "properties": { "STORE_NAME": "신림역포도몰", "STORE_TYPE": "general", "ADDRESS": "서울특별시 관악구 신림로 330, PODO MALL 1층 101 일부 (신림동)", "SIG_CD": "11620", "SIG_KOR_NM": "관악구" }, "geometry": { "type": "Point", "coordinates": [ 126.9301799, 37.48385383 ] } },
{ "type": "Feature", "properties": { "STORE_NAME": "서울대입구역", "STORE_TYPE": "general", "ADDRESS": "서울특별시 관악구 남부순환로 1812 (봉천동)", "SIG_CD": "11620", "SIG_KOR_NM": "관악구" }, "geometry": { "type": "Point", "coordinates": [ 126.951324, 37.48118 ] } },
{ "type": "Feature", "properties": { "STORE_NAME": "건국대", "STORE_TYPE": "general", "ADDRESS": "서울특별시 광진구 능동로 117 (화양동)", "SIG_CD": "11215", "SIG_KOR_NM": "광진구" }, "geometry": { "type": "Point", "coordinates": [ 127.0711244, 37.5415592 ] } },
{ "type": "Feature", "properties": { "STORE_NAME": "어린이대공원역", "STORE_TYPE": "general", "ADDRESS": "서울시 광진구 능동로243 ", "SIG_CD": "11215", "SIG_KOR_NM": "광진구" }, "geometry": { "type": "Point", "coordinates": [ 127.076404, 37.551946 ] } },
{ "type": "Feature", "properties": { "STORE_NAME": "아차산역", "STORE_TYPE": "general", "ADDRESS": "서울시 광진구 천호대로 676 ", "SIG_CD": "11215", "SIG_KOR_NM": "광진구" }, "geometry": { "type": "Point", "coordinates": [ 127.0898757, 37.5505388 ] } },
{ "type": "Feature", "properties": { "STORE_NAME": "올림픽대교북단", "STORE_TYPE": "general", "ADDRESS": "서울특별시 광진구 광나루로 608 (구의동)", "SIG_CD": "11215", "SIG_KOR_NM": "광진구" }, "geometry": { "type": "Point", "coordinates": [ 127.09524, 37.541129 ] } },
{ "type": "Feature", "properties": { "STORE_NAME": "구의DT", "STORE_TYPE": "generalDT", "ADDRESS": "서울특별시 광진구 광나루로 519 (구의동)", "SIG_CD": "11215", "SIG_KOR_NM": "광진구" }, "geometry": { "type": "Point", "coordinates": [ 127.0871587, 37.5451984 ] } },
{ "type": "Feature", "properties": { "STORE_NAME": "자양사거리", "STORE_TYPE": "general", "ADDRESS": "서울특별시 광진구 아차산로 355", "SIG_CD": "11215", "SIG_KOR_NM": "광진구" }, "geometry": { "type": "Point", "coordinates": [ 127.0825821, 37.5371158 ] } },
{ "type": "Feature", "properties": { "STORE_NAME": "군자역", "STORE_TYPE": "general", "ADDRESS": "서울특별시 광진구 천호대로 548 (군자동) 중앙빌딩", "SIG_CD": "11215", "SIG_KOR_NM": "광진구" }, "geometry": { "type": "Point", "coordinates": [ 127.078916, 37.556703 ] } },
{ "type": "Feature", "properties": { "STORE_NAME": "광나루", "STORE_TYPE": "general", "ADDRESS": "서울특별시 광진구 아차산로 607, 1,2층 (광장동)", "SIG_CD": "11215", "SIG_KOR_NM": "광진구" }, "geometry": { "type": "Point", "coordinates": [ 127.105934, 37.547442 ] } },
{ "type": "Feature", "properties": { "STORE_NAME": "건대스타시티", "STORE_TYPE": "general", "ADDRESS": "서울특별시 광진구 아차산로 262 (자양동)", "SIG_CD": "11215", "SIG_KOR_NM": "광진구" }, "geometry": { "type": "Point", "coordinates": [ 127.0725451, 37.53780432 ] } },
{ "type": "Feature", "properties": { "STORE_NAME": "자양", "STORE_TYPE": "general", "ADDRESS": "서울특별시 광진구 능동로 50 (자양동)", "SIG_CD": "11215", "SIG_KOR_NM": "광진구" }, "geometry": { "type": "Point", "coordinates": [ 127.0691462, 37.5354769 ] } },
{ "type": "Feature", "properties": { "STORE_NAME": "강변역", "STORE_TYPE": "general", "ADDRESS": "서울특별시 광진구 구의강변로 64 (구의동) 구의아크로리버", "SIG_CD": "11215", "SIG_KOR_NM": "광진구" }, "geometry": { "type": "Point", "coordinates": [ 127.093086, 37.536155 ] } },
{ "type": "Feature", "properties": { "STORE_NAME": "건대입구", "STORE_TYPE": "general", "ADDRESS": "서울특별시 광진구 능동로 107 (화양동)", "SIG_CD": "11215", "SIG_KOR_NM": "광진구" }, "geometry": { "type": "Point", "coordinates": [ 127.0707225, 37.5406604 ] } },
{ "type": "Feature", "properties": { "STORE_NAME": "구의역", "STORE_TYPE": "general", "ADDRESS": "서울특별시 광진구 아차산로 373 (구의동)", "SIG_CD": "11215", "SIG_KOR_NM": "광진구" }, "geometry": { "type": "Point", "coordinates": [ 127.084015, 37.53698 ] } },
{ "type": "Feature", "properties": { "STORE_NAME": "광장", "STORE_TYPE": "general", "ADDRESS": "서울특별시 광진구 아차산로 537-17 (광장동)", "SIG_CD": "11215", "SIG_KOR_NM": "광진구" }, "geometry": { "type": "Point", "coordinates": [ 127.099789, 37.542857 ] } },
{ "type": "Feature", "properties": { "STORE_NAME": "건국클래식", "STORE_TYPE": "general", "ADDRESS": "서울특별시 광진구 능동로 90 (자양동) 더 클래식500", "SIG_CD": "11215", "SIG_KOR_NM": "광진구" }, "geometry": { "type": "Point", "coordinates": [ 127.070709, 37.53838 ] } },
{ "type": "Feature", "properties": { "STORE_NAME": "가산에스케이", "STORE_TYPE": "general", "ADDRESS": "서울특별시 금천구 가산디지털1로 171 (가산동)", "SIG_CD": "11545", "SIG_KOR_NM": "금천구" }, "geometry": { "type": "Point", "coordinates": [ 126.8805702, 37.48061318 ] } },
{ "type": "Feature", "properties": { "STORE_NAME": "독산사거리", "STORE_TYPE": "general", "ADDRESS": "서울특별시 금천구 시흥대로 426 (독산동)", "SIG_CD": "11545", "SIG_KOR_NM": "금천구" }, "geometry": { "type": "Point", "coordinates": [ 126.898775, 37.471511 ] } },
{ "type": "Feature", "properties": { "STORE_NAME": "금천시흥", "STORE_TYPE": "general", "ADDRESS": "서울특별시 금천구 시흥대로 164 (시흥동)", "SIG_CD": "11545", "SIG_KOR_NM": "금천구" }, "geometry": { "type": "Point", "coordinates": [ 126.903183, 37.448624 ] } },
{ "type": "Feature", "properties": { "STORE_NAME": "가산디지털단지역", "STORE_TYPE": "general", "ADDRESS": "서울특별시 금천구 벚꽃로 298 (가산동)", "SIG_CD": "11545", "SIG_KOR_NM": "금천구" }, "geometry": { "type": "Point", "coordinates": [ 126.883779, 37.481324 ] } },
{ "type": "Feature", "properties": { "STORE_NAME": "금천독산", "STORE_TYPE": "general", "ADDRESS": "서울특별시 금천구 두산로 70 (독산동)", "SIG_CD": "11545", "SIG_KOR_NM": "금천구" }, "geometry": { "type": "Point", "coordinates": [ 126.895246, 37.46914 ] } },
{ "type": "Feature", "properties": { "STORE_NAME": "가산디지털", "STORE_TYPE": "general", "ADDRESS": "서울특별시 금천구 가산디지털1로 168 (가산동)", "SIG_CD": "11545", "SIG_KOR_NM": "금천구" }, "geometry": { "type": "Point", "coordinates": [ 126.882499699999897, 37.4798346 ] } },
{ "type": "Feature", "properties": { "STORE_NAME": "W-Mall", "STORE_TYPE": "general", "ADDRESS": "서울특별시 금천구 디지털로 188 (가산동)", "SIG_CD": "11545", "SIG_KOR_NM": "금천구" }, "geometry": { "type": "Point", "coordinates": [ 126.8876908, 37.47730499 ] } },
{ "type": "Feature", "properties": { "STORE_NAME": "마리오아울렛", "STORE_TYPE": "general", "ADDRESS": "서울특별시 금천구 벚꽃로 266 마리오아울렛3관", "SIG_CD": "11545", "SIG_KOR_NM": "금천구" }, "geometry": { "type": "Point", "coordinates": [ 126.885076, 37.478701 ] } },
{ "type": "Feature", "properties": { "STORE_NAME": "가산브이타워", "STORE_TYPE": "general", "ADDRESS": "서울특별시 금천구 가산디지털1로 128 (가산동)", "SIG_CD": "11545", "SIG_KOR_NM": "금천구" }, "geometry": { "type": "Point", "coordinates": [ 126.883683, 37.477221 ] } },
{ "type": "Feature", "properties": { "STORE_NAME": "가산그레이트", "STORE_TYPE": "general", "ADDRESS": "서울특별시 금천구 디지털로9길 32, 갑을그레이트밸리 1층 (가산동)", "SIG_CD": "11545", "SIG_KOR_NM": "금천구" }, "geometry": { "type": "Point", "coordinates": [ 126.887476800000101, 37.4794491 ] } },
{ "type": "Feature", "properties": { "STORE_NAME": "월계트레이더스", "STORE_TYPE": "general", "ADDRESS": "서울시 노원구 마들로3길 15 ", "SIG_CD": "11350", "SIG_KOR_NM": "노원구" }, "geometry": { "type": "Point", "coordinates": [ 127.0614978, 37.6277053 ] } },
{ "type": "Feature", "properties": { "STORE_NAME": "상계초교사거리", "STORE_TYPE": "general", "ADDRESS": "서울 노원구 노원로 449 ", "SIG_CD": "11350", "SIG_KOR_NM": "노원구" }, "geometry": { "type": "Point", "coordinates": [ 127.066442, 37.656776 ] } },
{ "type": "Feature", "properties": { "STORE_NAME": "공릉DT", "STORE_TYPE": "generalDT", "ADDRESS": "서울특별시 노원구 동일로 1015 (공릉동)", "SIG_CD": "11350", "SIG_KOR_NM": "노원구" }, "geometry": { "type": "Point", "coordinates": [ 127.0743116, 37.6206884 ] } },
{ "type": "Feature", "properties": { "STORE_NAME": "노원마들역", "STORE_TYPE": "general", "ADDRESS": "서울특별시 노원구 노원로 569 (상계동, 임광아파트)", "SIG_CD": "11350", "SIG_KOR_NM": "노원구" }, "geometry": { "type": "Point", "coordinates": [ 127.058008, 37.660941 ] } },
{ "type": "Feature", "properties": { "STORE_NAME": "공릉역", "STORE_TYPE": "general", "ADDRESS": "서울특별시 노원구 동일로 1081 (공릉동)", "SIG_CD": "11350", "SIG_KOR_NM": "노원구" }, "geometry": { "type": "Point", "coordinates": [ 127.072252, 37.626337 ] } },
{ "type": "Feature", "properties": { "STORE_NAME": "서울여대", "STORE_TYPE": "general", "ADDRESS": "서울특별시 노원구 화랑로 621 (공릉동)", "SIG_CD": "11350", "SIG_KOR_NM": "노원구" }, "geometry": { "type": "Point", "coordinates": [ 127.093084, 37.626163 ] } },
{ "type": "Feature", "properties": { "STORE_NAME": "은행사거리", "STORE_TYPE": "general", "ADDRESS": "서울특별시 노원구 중계로 217, 중흥빌딩 103,203호 (중계동)", "SIG_CD": "11350", "SIG_KOR_NM": "노원구" }, "geometry": { "type": "Point", "coordinates": [ 127.0759861, 37.65048737 ] } },
{ "type": "Feature", "properties": { "STORE_NAME": "노원KT", "STORE_TYPE": "general", "ADDRESS": "서울특별시 노원구 노해로 502, (주)KT 노원사옥 (상계동)", "SIG_CD": "11350", "SIG_KOR_NM": "노원구" }, "geometry": { "type": "Point", "coordinates": [ 127.063617, 37.654562 ] } },
{ "type": "Feature", "properties": { "STORE_NAME": "광운대", "STORE_TYPE": "general", "ADDRESS": "서울특별시 노원구 석계로 104 (월계동)", "SIG_CD": "11350", "SIG_KOR_NM": "노원구" }, "geometry": { "type": "Point", "coordinates": [ 127.0607009, 37.6231479 ] } },
{ "type": "Feature", "properties": { "STORE_NAME": "중계역", "STORE_TYPE": "general", "ADDRESS": "서울특별시 노원구 동일로 1339, 대한빌딩 (상계동)", "SIG_CD": "11350", "SIG_KOR_NM": "노원구" }, "geometry": { "type": "Point", "coordinates": [ 127.062244, 37.64817 ] } },
{ "type": "Feature", "properties": { "STORE_NAME": "노원역", "STORE_TYPE": "reserve", "ADDRESS": "서울특별시 노원구 동일로 1413, 1층 (상계동)", "SIG_CD": "11350", "SIG_KOR_NM": "노원구" }, "geometry": { "type": "Point", "coordinates": [ 127.060034, 37.654751 ] } },
{ "type": "Feature", "properties": { "STORE_NAME": "월계이마트", "STORE_TYPE": "general", "ADDRESS": "서울특별시 노원구 마들로3길 15 (월계동)", "SIG_CD": "11350", "SIG_KOR_NM": "노원구" }, "geometry": { "type": "Point", "coordinates": [ 127.062094, 37.627155 ] } },
{ "type": "Feature", "properties": { "STORE_NAME": "창동이마트", "STORE_TYPE": "general", "ADDRESS": "서울특별시 도봉구 노해로65길 4 (창동)", "SIG_CD": "11320", "SIG_KOR_NM": "도봉구" }, "geometry": { "type": "Point", "coordinates": [ 127.046869, 37.651645 ] } },
{ "type": "Feature", "properties": { "STORE_NAME": "쌍문역", "STORE_TYPE": "general", "ADDRESS": "서울특별시 도봉구 도봉로 480 (창동)", "SIG_CD": "11320", "SIG_KOR_NM": "도봉구" }, "geometry": { "type": "Point", "coordinates": [ 127.034783, 37.648456 ] } },
{ "type": "Feature", "properties": { "STORE_NAME": "남성역", "STORE_TYPE": "general", "ADDRESS": "서울특별시 동작구 사당로 219 (사당동)", "SIG_CD": "11590", "SIG_KOR_NM": "동작구" }, "geometry": { "type": "Point", "coordinates": [ 126.9725739, 37.484119799999988 ] } },
{ "type": "Feature", "properties": { "STORE_NAME": "보라매공원R", "STORE_TYPE": "reserve", "ADDRESS": "서울특별시 동작구 보라매로5길 35 (신대방동, 파크스퀘어,보라매현대APT)", "SIG_CD": "11590", "SIG_KOR_NM": "동작구" }, "geometry": { "type": "Point", "coordinates": [ 126.923345707982904, 37.49226212712864 ] } },
{ "type": "Feature", "properties": { "STORE_NAME": "이수자이", "STORE_TYPE": "general", "ADDRESS": "서울특별시 동작구 사당로 300 (사당동 이수자이)", "SIG_CD": "11590", "SIG_KOR_NM": "동작구" }, "geometry": { "type": "Point", "coordinates": [ 126.980047, 37.484414 ] } },
{ "type": "Feature", "properties": { "STORE_NAME": "노량진역", "STORE_TYPE": "general", "ADDRESS": "서울특별시 동작구 노량진로 134 (노량진동)", "SIG_CD": "11590", "SIG_KOR_NM": "동작구" }, "geometry": { "type": "Point", "coordinates": [ 126.940879, 37.51339 ] } },
{ "type": "Feature", "properties": { "STORE_NAME": "신대방삼거리역", "STORE_TYPE": "general", "ADDRESS": "서울특별시 동작구 상도로 102 (상도동)", "SIG_CD": "11590", "SIG_KOR_NM": "동작구" }, "geometry": { "type": "Point", "coordinates": [ 126.931766, 37.499914 ] } },
{ "type": "Feature", "properties": { "STORE_NAME": "중앙대", "STORE_TYPE": "general", "ADDRESS": "서울특별시 동작구 흑석로 75-1 (흑석동)", "SIG_CD": "11590", "SIG_KOR_NM": "동작구" }, "geometry": { "type": "Point", "coordinates": [ 126.958125, 37.506933 ] } },
{ "type": "Feature", "properties": { "STORE_NAME": "숭실대입구역", "STORE_TYPE": "general", "ADDRESS": "서울특별시 동작구 상도로 354 (상도동)", "SIG_CD": "11590", "SIG_KOR_NM": "동작구" }, "geometry": { "type": "Point", "coordinates": [ 126.9527123, 37.4968346 ] } },
{ "type": "Feature", "properties": { "STORE_NAME": "숭실대", "STORE_TYPE": "general", "ADDRESS": "서울특별시 동작구 사당로 4 (상도동)", "SIG_CD": "11590", "SIG_KOR_NM": "동작구" }, "geometry": { "type": "Point", "coordinates": [ 126.9548891, 37.49538073 ] } },
{ "type": "Feature", "properties": { "STORE_NAME": "사당역", "STORE_TYPE": "general", "ADDRESS": "서울특별시 동작구 동작대로 21, 양지빌딩 1-3층 (사당동)", "SIG_CD": "11590", "SIG_KOR_NM": "동작구" }, "geometry": { "type": "Point", "coordinates": [ 126.9813456, 37.47849216 ] } },
{ "type": "Feature", "properties": { "STORE_NAME": "상암YTN", "STORE_TYPE": "general", "ADDRESS": "서울특별시 마포구 상암산로 76 (상암동)", "SIG_CD": "11440", "SIG_KOR_NM": "마포구" }, "geometry": { "type": "Point", "coordinates": [ 126.892315, 37.579183 ] } },
{ "type": "Feature", "properties": { "STORE_NAME": "마포용강동", "STORE_TYPE": "general", "ADDRESS": "서울특별시 마포구 토정로 295 (용강동)", "SIG_CD": "11440", "SIG_KOR_NM": "마포구" }, "geometry": { "type": "Point", "coordinates": [ 126.942209, 37.541186 ] } },
{ "type": "Feature", "properties": { "STORE_NAME": "홍대입구역사거리R", "STORE_TYPE": "reserve", "ADDRESS": "서울특별시 마포구 양화로 125 (서교동)", "SIG_CD": "11440", "SIG_KOR_NM": "마포구" }, "geometry": { "type": "Point", "coordinates": [ 126.92036, 37.554636 ] } },
{ "type": "Feature", "properties": { "STORE_NAME": "마포경찰서후문", "STORE_TYPE": "general", "ADDRESS": "서울특별시 마포구 마포대로 173-14 (아현동)", "SIG_CD": "11440", "SIG_KOR_NM": "마포구" }, "geometry": { "type": "Point", "coordinates": [ 126.953432, 37.5508 ] } },
{ "type": "Feature", "properties": { "STORE_NAME": "공덕", "STORE_TYPE": "general", "ADDRESS": "서울특별시 마포구 마포대로 130 (공덕동)", "SIG_CD": "11440", "SIG_KOR_NM": "마포구" }, "geometry": { "type": "Point", "coordinates": [ 126.952956, 37.545913 ] } },
{ "type": "Feature", "properties": { "STORE_NAME": "합정폴리스R", "STORE_TYPE": "reserve", "ADDRESS": "서울특별시 마포구 양화로 45 (서교동, 메세나폴리스)", "SIG_CD": "11440", "SIG_KOR_NM": "마포구" }, "geometry": { "type": "Point", "coordinates": [ 126.9134, 37.5509 ] } },
{ "type": "Feature", "properties": { "STORE_NAME": "홍대공항철도역", "STORE_TYPE": "general", "ADDRESS": "서울특별시 마포구 양화로 178 (동교동)", "SIG_CD": "11440", "SIG_KOR_NM": "마포구" }, "geometry": { "type": "Point", "coordinates": [ 126.925146, 37.557491 ] } },
{ "type": "Feature", "properties": { "STORE_NAME": "마포염리", "STORE_TYPE": "general", "ADDRESS": "서울특별시 마포구 독막로 311 (염리동)", "SIG_CD": "11440", "SIG_KOR_NM": "마포구" }, "geometry": { "type": "Point", "coordinates": [ 126.94768, 37.543876 ] } },
{ "type": "Feature", "properties": { "STORE_NAME": "서강광흥창역", "STORE_TYPE": "general", "ADDRESS": "서울특별시 마포구 서강로 69 (창전동)", "SIG_CD": "11440", "SIG_KOR_NM": "마포구" }, "geometry": { "type": "Point", "coordinates": [ 126.931661, 37.549377 ] } },
{ "type": "Feature", "properties": { "STORE_NAME": "합정", "STORE_TYPE": "general", "ADDRESS": "서울특별시 마포구 월드컵로1길 14 (합정동) 마포한강푸르지오 110, 111, 112-2", "SIG_CD": "11440", "SIG_KOR_NM": "마포구" }, "geometry": { "type": "Point", "coordinates": [ 126.912999, 37.54963 ] } },
{ "type": "Feature", "properties": { "STORE_NAME": "서강대흥역", "STORE_TYPE": "general", "ADDRESS": "서울특별시 마포구 백범로 89-5 (대흥동)", "SIG_CD": "11440", "SIG_KOR_NM": "마포구" }, "geometry": { "type": "Point", "coordinates": [ 126.941576, 37.548178 ] } },
{ "type": "Feature", "properties": { "STORE_NAME": "서교동사거리", "STORE_TYPE": "general", "ADDRESS": "서울특별시 마포구 양화로 105 (서교동)", "SIG_CD": "11440", "SIG_KOR_NM": "마포구" }, "geometry": { "type": "Point", "coordinates": [ 126.918564, 37.553376 ] } },
{ "type": "Feature", "properties": { "STORE_NAME": "상암사보이시티", "STORE_TYPE": "general", "ADDRESS": "서울특별시 마포구 월드컵북로54길 17 (상암동)", "SIG_CD": "11440", "SIG_KOR_NM": "마포구" }, "geometry": { "type": "Point", "coordinates": [ 126.888983, 37.58147 ] } },
{ "type": "Feature", "properties": { "STORE_NAME": "신촌오거리", "STORE_TYPE": "general", "ADDRESS": "서울특별시 마포구 신촌로16길 10 (노고산동)", "SIG_CD": "11440", "SIG_KOR_NM": "마포구" }, "geometry": { "type": "Point", "coordinates": [ 126.934694, 37.555137 ] } },
{ "type": "Feature", "properties": { "STORE_NAME": "상암디지털큐브", "STORE_TYPE": "general", "ADDRESS": "서울특별시 마포구 상암산로 34", "SIG_CD": "11440", "SIG_KOR_NM": "마포구" }, "geometry": { "type": "Point", "coordinates": [ 126.8892477, 37.5763132 ] } },
{ "type": "Feature", "properties": { "STORE_NAME": "상수역", "STORE_TYPE": "general", "ADDRESS": "서울특별시 마포구 독막로 88 (상수동)", "SIG_CD": "11440", "SIG_KOR_NM": "마포구" }, "geometry": { "type": "Point", "coordinates": [ 126.9232158, 37.547481700000013 ] } },
{ "type": "Feature", "properties": { "STORE_NAME": "공덕오거리", "STORE_TYPE": "general", "ADDRESS": "서울특별시 마포구 마포대로 86 (도화동) 창강빌딩", "SIG_CD": "11440", "SIG_KOR_NM": "마포구" }, "geometry": { "type": "Point", "coordinates": [ 126.950577300000106, 37.5424641 ] } },
{ "type": "Feature", "properties": { "STORE_NAME": "서교", "STORE_TYPE": "general", "ADDRESS": "서울특별시 마포구 양화로 78 (서교동) 서교빌딩 1층", "SIG_CD": "11440", "SIG_KOR_NM": "마포구" }, "geometry": { "type": "Point", "coordinates": [ 126.9169208, 37.551385 ] } },
{ "type": "Feature", "properties": { "STORE_NAME": "서강대", "STORE_TYPE": "general", "ADDRESS": "서울특별시 마포구 백범로 23 (신수동)", "SIG_CD": "11440", "SIG_KOR_NM": "마포구" }, "geometry": { "type": "Point", "coordinates": [ 126.9378262, 37.5524584 ] } },
{ "type": "Feature", "properties": { "STORE_NAME": "상암MBC", "STORE_TYPE": "reserve", "ADDRESS": "서울특별시 마포구 성암로 267 (상암동)", "SIG_CD": "11440", "SIG_KOR_NM": "마포구" }, "geometry": { "type": "Point", "coordinates": [ 126.890908, 37.581297 ] } },
{ "type": "Feature", "properties": { "STORE_NAME": "홍대공원", "STORE_TYPE": "general", "ADDRESS": "서울특별시 마포구 와우산로 83 (서교동)", "SIG_CD": "11440", "SIG_KOR_NM": "마포구" }, "geometry": { "type": "Point", "coordinates": [ 126.9232428, 37.5518983 ] } },
{ "type": "Feature", "properties": { "STORE_NAME": "홍대역", "STORE_TYPE": "general", "ADDRESS": "서울특별시 마포구 양화로 165, 상진빌딩 1층 (동교동)", "SIG_CD": "11440", "SIG_KOR_NM": "마포구" }, "geometry": { "type": "Point", "coordinates": [ 126.923654, 37.557175 ] } },
{ "type": "Feature", "properties": { "STORE_NAME": "동교", "STORE_TYPE": "general", "ADDRESS": "서울특별시 마포구 월드컵북로 22, 영준빌딩 1층 (동교동)", "SIG_CD": "11440", "SIG_KOR_NM": "마포구" }, "geometry": { "type": "Point", "coordinates": [ 126.919819, 37.556928 ] } },
{ "type": "Feature", "properties": { "STORE_NAME": "애오개역", "STORE_TYPE": "general", "ADDRESS": "서울특별시 마포구 마포대로 201, 마포트라팰리스II (아현동)", "SIG_CD": "11440", "SIG_KOR_NM": "마포구" }, "geometry": { "type": "Point", "coordinates": [ 126.9555203, 37.55218737 ] } },
{ "type": "Feature", "properties": { "STORE_NAME": "홍대갤러리", "STORE_TYPE": "general", "ADDRESS": "서울특별시 마포구 와우산로 101, 정명빌딩 (서교동)", "SIG_CD": "11440", "SIG_KOR_NM": "마포구" }, "geometry": { "type": "Point", "coordinates": [ 126.9248279, 37.55328184 ] } },
{ "type": "Feature", "properties": { "STORE_NAME": "상암DMC", "STORE_TYPE": "general", "ADDRESS": "서울특별시 마포구 월드컵북로 375, DMC이안오피스텔1단지 102호,202호 (상암동)", "SIG_CD": "11440", "SIG_KOR_NM": "마포구" }, "geometry": { "type": "Point", "coordinates": [ 126.890684, 37.577623 ] } },
{ "type": "Feature", "properties": { "STORE_NAME": "마포일진빌딩", "STORE_TYPE": "general", "ADDRESS": "서울특별시 마포구 마포대로 45, 일진빌딩 1층 (도화동)", "SIG_CD": "11440", "SIG_KOR_NM": "마포구" }, "geometry": { "type": "Point", "coordinates": [ 126.9463168, 37.54043451 ] } },
{ "type": "Feature", "properties": { "STORE_NAME": "마포아크로", "STORE_TYPE": "general", "ADDRESS": "서울특별시 마포구 마포대로 68 (도화동) 마포아크로타워", "SIG_CD": "11440", "SIG_KOR_NM": "마포구" }, "geometry": { "type": "Point", "coordinates": [ 126.948819, 37.54145556 ] } },
{ "type": "Feature", "properties": { "STORE_NAME": "홍대삼거리", "STORE_TYPE": "general", "ADDRESS": "서울특별시 마포구 와우산로 64 (상수동)", "SIG_CD": "11440", "SIG_KOR_NM": "마포구" }, "geometry": { "type": "Point", "coordinates": [ 126.923179, 37.550266 ] } },
{ "type": "Feature", "properties": { "STORE_NAME": "망원역", "STORE_TYPE": "general", "ADDRESS": "서울특별시 마포구 월드컵로 74 (서교동)", "SIG_CD": "11440", "SIG_KOR_NM": "마포구" }, "geometry": { "type": "Point", "coordinates": [ 126.910637, 37.555829 ] } },
{ "type": "Feature", "properties": { "STORE_NAME": "마포이마트", "STORE_TYPE": "general", "ADDRESS": "서울특별시 마포구 백범로 212 (신공덕동) 마포이마트", "SIG_CD": "11440", "SIG_KOR_NM": "마포구" }, "geometry": { "type": "Point", "coordinates": [ 126.953341, 37.542421 ] } },
{ "type": "Feature", "properties": { "STORE_NAME": "합정메세나몰", "STORE_TYPE": "general", "ADDRESS": "서울특별시 마포구 양화로 45 (서교동, 메세나폴리스)", "SIG_CD": "11440", "SIG_KOR_NM": "마포구" }, "geometry": { "type": "Point", "coordinates": [ 126.913848, 37.551004 ] } },
{ "type": "Feature", "properties": { "STORE_NAME": "가재울뉴타운", "STORE_TYPE": "general", "ADDRESS": "서울 서대문구 가재울미래로 2 ", "SIG_CD": "11410", "SIG_KOR_NM": "서대문구" }, "geometry": { "type": "Point", "coordinates": [ 126.9164441, 37.5749841 ] } },
{ "type": "Feature", "properties": { "STORE_NAME": "신촌역", "STORE_TYPE": "general", "ADDRESS": "서울특별시 서대문구 신촌로 73 (창천동)", "SIG_CD": "11410", "SIG_KOR_NM": "서대문구" }, "geometry": { "type": "Point", "coordinates": [ 126.934673, 37.556167 ] } },
{ "type": "Feature", "properties": { "STORE_NAME": "연희동", "STORE_TYPE": "general", "ADDRESS": "서울특별시 서대문구 연희로 97 (연희동)", "SIG_CD": "11410", "SIG_KOR_NM": "서대문구" }, "geometry": { "type": "Point", "coordinates": [ 126.930475, 37.566702 ] } },
{ "type": "Feature", "properties": { "STORE_NAME": "아현역", "STORE_TYPE": "general", "ADDRESS": "서울특별시 서대문구 신촌로35길 10 (북아현동, E편한세상신촌 4단지)", "SIG_CD": "11410", "SIG_KOR_NM": "서대문구" }, "geometry": { "type": "Point", "coordinates": [ 126.956058, 37.55782 ] } },
{ "type": "Feature", "properties": { "STORE_NAME": "홍제역", "STORE_TYPE": "general", "ADDRESS": "서울특별시 서대문구 통일로 451 (홍제동)", "SIG_CD": "11410", "SIG_KOR_NM": "서대문구" }, "geometry": { "type": "Point", "coordinates": [ 126.943864, 37.588658 ] } },
{ "type": "Feature", "properties": { "STORE_NAME": "연세백양로", "STORE_TYPE": "general", "ADDRESS": "서울특별시 서대문구 연세로 50 (신촌동) 연세대학교", "SIG_CD": "11410", "SIG_KOR_NM": "서대문구" }, "geometry": { "type": "Point", "coordinates": [ 126.937529, 37.562644 ] } },
{ "type": "Feature", "properties": { "STORE_NAME": "명지대", "STORE_TYPE": "general", "ADDRESS": "서울특별시 서대문구 거북골로 53 (남가좌동)", "SIG_CD": "11410", "SIG_KOR_NM": "서대문구" }, "geometry": { "type": "Point", "coordinates": [ 126.9223233, 37.5782618 ] } },
{ "type": "Feature", "properties": { "STORE_NAME": "연희DT", "STORE_TYPE": "generalDT", "ADDRESS": "서울특별시 서대문구 연희로 144 (연희동)", "SIG_CD": "11410", "SIG_KOR_NM": "서대문구" }, "geometry": { "type": "Point", "coordinates": [ 126.9339777, 37.5702143 ] } },
{ "type": "Feature", "properties": { "STORE_NAME": "동교삼거리", "STORE_TYPE": "general", "ADDRESS": "서울특별시 서대문구 신촌로 1 (창천동)", "SIG_CD": "11410", "SIG_KOR_NM": "서대문구" }, "geometry": { "type": "Point", "coordinates": [ 126.92742, 37.559046 ] } },
{ "type": "Feature", "properties": { "STORE_NAME": "경기대", "STORE_TYPE": "general", "ADDRESS": "서울특별시 서대문구 충정로 53 (충정로2가)", "SIG_CD": "11410", "SIG_KOR_NM": "서대문구" }, "geometry": { "type": "Point", "coordinates": [ 126.9646045, 37.56367995 ] } },
{ "type": "Feature", "properties": { "STORE_NAME": "신촌대로", "STORE_TYPE": "general", "ADDRESS": "서울특별시 서대문구 신촌로 121 (창천동)", "SIG_CD": "11410", "SIG_KOR_NM": "서대문구" }, "geometry": { "type": "Point", "coordinates": [ 126.9392796, 37.55624543 ] } },
{ "type": "Feature", "properties": { "STORE_NAME": "신촌", "STORE_TYPE": "general", "ADDRESS": "서울특별시 서대문구 연세로 10-1 (창천동)", "SIG_CD": "11410", "SIG_KOR_NM": "서대문구" }, "geometry": { "type": "Point", "coordinates": [ 126.9371155, 37.55648577 ] } },
{ "type": "Feature", "properties": { "STORE_NAME": "이대R", "STORE_TYPE": "reserve", "ADDRESS": "서울특별시 서대문구 이화여대길 34 (대현동)", "SIG_CD": "11410", "SIG_KOR_NM": "서대문구" }, "geometry": { "type": "Point", "coordinates": [ 126.9459643, 37.55848315 ] } },
{ "type": "Feature", "properties": { "STORE_NAME": "연세종합관", "STORE_TYPE": "general", "ADDRESS": "서울특별시 서대문구 연세로 50, 연세세브란스 종합관 (신촌동)", "SIG_CD": "11410", "SIG_KOR_NM": "서대문구" }, "geometry": { "type": "Point", "coordinates": [ 126.9414708, 37.56177145 ] } },
{ "type": "Feature", "properties": { "STORE_NAME": "이대ECC", "STORE_TYPE": "general", "ADDRESS": "서울특별시 서대문구 이화여대길 52 (대현동) 이화여자대학교 B415호", "SIG_CD": "11410", "SIG_KOR_NM": "서대문구" }, "geometry": { "type": "Point", "coordinates": [ 126.94735, 37.561631 ] } },
{ "type": "Feature", "properties": { "STORE_NAME": "연대", "STORE_TYPE": "general", "ADDRESS": "서울특별시 서대문구 연세로 35 (창천동)", "SIG_CD": "11410", "SIG_KOR_NM": "서대문구" }, "geometry": { "type": "Point", "coordinates": [ 126.936727, 37.558706 ] } },
{ "type": "Feature", "properties": { "STORE_NAME": "신촌아트레온", "STORE_TYPE": "general", "ADDRESS": "서울특별시 서대문구 신촌로 129 (창천동)", "SIG_CD": "11410", "SIG_KOR_NM": "서대문구" }, "geometry": { "type": "Point", "coordinates": [ 126.940238, 37.556505 ] } },
{ "type": "Feature", "properties": { "STORE_NAME": "충정로역", "STORE_TYPE": "general", "ADDRESS": "서울특별시 서대문구 충정로 23", "SIG_CD": "11410", "SIG_KOR_NM": "서대문구" }, "geometry": { "type": "Point", "coordinates": [ 126.963219, 37.56137 ] } },
{ "type": "Feature", "properties": { "STORE_NAME": "연대동문", "STORE_TYPE": "general", "ADDRESS": "서울특별시 서대문구 성산로 565 (대신동)", "SIG_CD": "11410", "SIG_KOR_NM": "서대문구" }, "geometry": { "type": "Point", "coordinates": [ 126.946273, 37.566385 ] } },
{ "type": "Feature", "properties": { "STORE_NAME": "신촌명물거리", "STORE_TYPE": "general", "ADDRESS": "서울특별시 서대문구 명물길 24, 1-5층 (창천동)", "SIG_CD": "11410", "SIG_KOR_NM": "서대문구" }, "geometry": { "type": "Point", "coordinates": [ 126.938095, 37.557796 ] } },
{ "type": "Feature", "properties": { "STORE_NAME": "충정타워", "STORE_TYPE": "general", "ADDRESS": "서울특별시 서대문구 서소문로 21, 충정타워빌딩 1층 (충정로3가)", "SIG_CD": "11410", "SIG_KOR_NM": "서대문구" }, "geometry": { "type": "Point", "coordinates": [ 126.96411, 37.559869 ] } },
{ "type": "Feature", "properties": { "STORE_NAME": "강남교보타워R", "STORE_TYPE": "reserve", "ADDRESS": "서울특별시 서초구 강남대로 465 (서초동)", "SIG_CD": "11650", "SIG_KOR_NM": "서초구" }, "geometry": { "type": "Point", "coordinates": [ 127.024075, 37.503789 ] } },
{ "type": "Feature", "properties": { "STORE_NAME": "방배다이치빌딩", "STORE_TYPE": "general", "ADDRESS": "서울특별시 서초구 방배로 114 (방배동)", "SIG_CD": "11650", "SIG_KOR_NM": "서초구" }, "geometry": { "type": "Point", "coordinates": [ 126.995872, 37.484329 ] } },
{ "type": "Feature", "properties": { "STORE_NAME": "센트럴F1", "STORE_TYPE": "general", "ADDRESS": "서울특별시 서초구 신반포로 176 (반포동)", "SIG_CD": "11650", "SIG_KOR_NM": "서초구" }, "geometry": { "type": "Point", "coordinates": [ 127.004395, 37.505148 ] } },
{ "type": "Feature", "properties": { "STORE_NAME": "서초역이화빌딩", "STORE_TYPE": "general", "ADDRESS": "서울특별시 서초구 반포대로21길 3 (서초동)", "SIG_CD": "11650", "SIG_KOR_NM": "서초구" }, "geometry": { "type": "Point", "coordinates": [ 127.009126, 37.487931 ] } },
{ "type": "Feature", "properties": { "STORE_NAME": "서초구청", "STORE_TYPE": "general", "ADDRESS": "서울특별시 서초구 남부순환로 2557 (서초동)", "SIG_CD": "11650", "SIG_KOR_NM": "서초구" }, "geometry": { "type": "Point", "coordinates": [ 127.030103, 37.484206 ] } },
{ "type": "Feature", "properties": { "STORE_NAME": "서초우성사거리", "STORE_TYPE": "general", "ADDRESS": "서울특별시 서초구 강남대로 343 (서초동)", "SIG_CD": "11650", "SIG_KOR_NM": "서초구" }, "geometry": { "type": "Point", "coordinates": [ 127.02943, 37.493545 ] } },
{ "type": "Feature", "properties": { "STORE_NAME": "이수역사거리", "STORE_TYPE": "general", "ADDRESS": "서울특별시 서초구 서초대로 3-4 (방배동, 방배디오슈페리움1)", "SIG_CD": "11650", "SIG_KOR_NM": "서초구" }, "geometry": { "type": "Point", "coordinates": [ 126.983027, 37.48585 ] } },
{ "type": "Feature", "properties": { "STORE_NAME": "강남대로신사", "STORE_TYPE": "general", "ADDRESS": "서울특별시 서초구 강남대로 595 (잠원동)", "SIG_CD": "11650", "SIG_KOR_NM": "서초구" }, "geometry": { "type": "Point", "coordinates": [ 127.019469, 37.51489 ] } },
{ "type": "Feature", "properties": { "STORE_NAME": "서울고속터미널", "STORE_TYPE": "general", "ADDRESS": "서울특별시 서초구 신반포로 194 (반포동)", "SIG_CD": "11650", "SIG_KOR_NM": "서초구" }, "geometry": { "type": "Point", "coordinates": [ 127.005648, 37.504406 ] } },
{ "type": "Feature", "properties": { "STORE_NAME": "강남대로논현R", "STORE_TYPE": "reserve", "ADDRESS": "서울특별시 서초구 강남대로85길 5 (반포동)", "SIG_CD": "11650", "SIG_KOR_NM": "서초구" }, "geometry": { "type": "Point", "coordinates": [ 127.022568, 37.507413 ] } },
{ "type": "Feature", "properties": { "STORE_NAME": "방배", "STORE_TYPE": "general", "ADDRESS": "서울특별시 서초구 방배로 211", "SIG_CD": "11650", "SIG_KOR_NM": "서초구" }, "geometry": { "type": "Point", "coordinates": [ 126.9904974, 37.491914 ] } },
{ "type": "Feature", "properties": { "STORE_NAME": "방배카페거리", "STORE_TYPE": "general", "ADDRESS": "서울특별시 서초구 방배중앙로 162 (방배동)", "SIG_CD": "11650", "SIG_KOR_NM": "서초구" }, "geometry": { "type": "Point", "coordinates": [ 126.9865297, 37.4934767 ] } },
{ "type": "Feature", "properties": { "STORE_NAME": "서초법원", "STORE_TYPE": "general", "ADDRESS": "서울특별시 서초구 서초대로 274 (서초동)", "SIG_CD": "11650", "SIG_KOR_NM": "서초구" }, "geometry": { "type": "Point", "coordinates": [ 127.011875, 37.49297 ] } },
{ "type": "Feature", "properties": { "STORE_NAME": "청계산입구역", "STORE_TYPE": "general", "ADDRESS": "서울특별시 서초구 청계산로 203 (신원동)", "SIG_CD": "11650", "SIG_KOR_NM": "서초구" }, "geometry": { "type": "Point", "coordinates": [ 127.05625, 37.447323 ] } },
{ "type": "Feature", "properties": { "STORE_NAME": "사당로데오", "STORE_TYPE": "general", "ADDRESS": "서울특별시 서초구 방배천로 5-4(방배동)", "SIG_CD": "11650", "SIG_KOR_NM": "서초구" }, "geometry": { "type": "Point", "coordinates": [ 126.9821605, 37.4772752 ] } },
{ "type": "Feature", "properties": { "STORE_NAME": "파미에파크R", "STORE_TYPE": "reserve", "ADDRESS": "서울특별시 서초구 사평대로 205 (반포동) CENTRALCITY", "SIG_CD": "11650", "SIG_KOR_NM": "서초구" }, "geometry": { "type": "Point", "coordinates": [ 127.004362, 37.5030521 ] } },
{ "type": "Feature", "properties": { "STORE_NAME": "교대역", "STORE_TYPE": "general", "ADDRESS": "서울특별시 서초구 서초중앙로 138 (서초동) 우림빌딩", "SIG_CD": "11650", "SIG_KOR_NM": "서초구" }, "geometry": { "type": "Point", "coordinates": [ 127.01394, 37.494207 ] } },
{ "type": "Feature", "properties": { "STORE_NAME": "양재역", "STORE_TYPE": "reserve", "ADDRESS": "서울특별시 서초구 강남대로 202 (양재동) 모산빌딩", "SIG_CD": "11650", "SIG_KOR_NM": "서초구" }, "geometry": { "type": "Point", "coordinates": [ 127.0367682, 37.4820475 ] } },
{ "type": "Feature", "properties": { "STORE_NAME": "논현역", "STORE_TYPE": "general", "ADDRESS": "서울특별시 서초구 강남대로 557 (잠원동) 1~2층", "SIG_CD": "11650", "SIG_KOR_NM": "서초구" }, "geometry": { "type": "Point", "coordinates": [ 127.0205875, 37.5111983 ] } },
{ "type": "Feature", "properties": { "STORE_NAME": "이수역", "STORE_TYPE": "reserve", "ADDRESS": "서울특별시 서초구 동작대로 112 (방배동)", "SIG_CD": "11650", "SIG_KOR_NM": "서초구" }, "geometry": { "type": "Point", "coordinates": [ 126.982740299999904, 37.4864664 ] } },
{ "type": "Feature", "properties": { "STORE_NAME": "내방역", "STORE_TYPE": "general", "ADDRESS": "서울특별시 서초구 방배로 184 (방배동) 대풍빌딩", "SIG_CD": "11650", "SIG_KOR_NM": "서초구" }, "geometry": { "type": "Point", "coordinates": [ 126.992455, 37.490004 ] } },
{ "type": "Feature", "properties": { "STORE_NAME": "서초파라곤", "STORE_TYPE": "general", "ADDRESS": "서울특별시 서초구 서초대로74길 29 (서초동) 서초파라곤", "SIG_CD": "11650", "SIG_KOR_NM": "서초구" }, "geometry": { "type": "Point", "coordinates": [ 127.027422, 37.494941 ] } },
{ "type": "Feature", "properties": { "STORE_NAME": "서울아트센터", "STORE_TYPE": "general", "ADDRESS": "서울특별시 서초구 남부순환로 2395 (서초동) 호경빌딩", "SIG_CD": "11650", "SIG_KOR_NM": "서초구" }, "geometry": { "type": "Point", "coordinates": [ 127.012368, 37.480866 ] } },
{ "type": "Feature", "properties": { "STORE_NAME": "서초중앙로", "STORE_TYPE": "general", "ADDRESS": "서울특별시 서초구 서초중앙로 225", "SIG_CD": "11650", "SIG_KOR_NM": "서초구" }, "geometry": { "type": "Point", "coordinates": [ 127.01152, 37.501691 ] } },
{ "type": "Feature", "properties": { "STORE_NAME": "센트럴시티", "STORE_TYPE": "general", "ADDRESS": "서울특별시 서초구 신반포로 176 (반포동)", "SIG_CD": "11650", "SIG_KOR_NM": "서초구" }, "geometry": { "type": "Point", "coordinates": [ 127.004459, 37.504707 ] } },
{ "type": "Feature", "properties": { "STORE_NAME": "강남삼성타운", "STORE_TYPE": "general", "ADDRESS": "서울특별시 서초구 서초대로78길 24 (서초동)", "SIG_CD": "11650", "SIG_KOR_NM": "서초구" }, "geometry": { "type": "Point", "coordinates": [ 127.0277144, 37.49562035 ] } },
{ "type": "Feature", "properties": { "STORE_NAME": "방배역", "STORE_TYPE": "general", "ADDRESS": "서울특별시 서초구 방배로 84 (방배동)", "SIG_CD": "11650", "SIG_KOR_NM": "서초구" }, "geometry": { "type": "Point", "coordinates": [ 126.9976438, 37.48200755 ] } },
{ "type": "Feature", "properties": { "STORE_NAME": "반포역", "STORE_TYPE": "general", "ADDRESS": "서울특별시 서초구 신반포로 257 (잠원동) 신반포11차상가", "SIG_CD": "11650", "SIG_KOR_NM": "서초구" }, "geometry": { "type": "Point", "coordinates": [ 127.011959, 37.508589 ] } },
{ "type": "Feature", "properties": { "STORE_NAME": "남부터미널", "STORE_TYPE": "general", "ADDRESS": "서울특별시 서초구 서초중앙로 26, 래미안서초유니빌 1층 101호 (서초동)", "SIG_CD": "11650", "SIG_KOR_NM": "서초구" }, "geometry": { "type": "Point", "coordinates": [ 127.0169464, 37.48467334 ] } },
{ "type": "Feature", "properties": { "STORE_NAME": "뉴코아강남", "STORE_TYPE": "general", "ADDRESS": "서울특별시 서초구 잠원로 69 (잠원동) 킴스클럽", "SIG_CD": "11650", "SIG_KOR_NM": "서초구" }, "geometry": { "type": "Point", "coordinates": [ 127.0069582, 37.51031339 ] } },
{ "type": "Feature", "properties": { "STORE_NAME": "강남2", "STORE_TYPE": "general", "ADDRESS": "서울특별시 서초구 서초대로77길 27, 유빌딩 1,2층 (서초동)", "SIG_CD": "11650", "SIG_KOR_NM": "서초구" }, "geometry": { "type": "Point", "coordinates": [ 127.0254909, 37.5000875 ] } },
{ "type": "Feature", "properties": { "STORE_NAME": "교대", "STORE_TYPE": "general", "ADDRESS": "서울특별시 서초구 서초중앙로 118 (서초동)", "SIG_CD": "11650", "SIG_KOR_NM": "서초구" }, "geometry": { "type": "Point", "coordinates": [ 127.0142207, 37.4923611 ] } },
{ "type": "Feature", "properties": { "STORE_NAME": "하이브랜드", "STORE_TYPE": "general", "ADDRESS": "서울특별시 서초구 매헌로 16, 리빙관 101호 (양재동)", "SIG_CD": "11650", "SIG_KOR_NM": "서초구" }, "geometry": { "type": "Point", "coordinates": [ 127.0368447, 37.46330766 ] } },
{ "type": "Feature", "properties": { "STORE_NAME": "신논현역", "STORE_TYPE": "general", "ADDRESS": "서울특별시 서초구 강남대로 483 (반포동) 청호빌딩", "SIG_CD": "11650", "SIG_KOR_NM": "서초구" }, "geometry": { "type": "Point", "coordinates": [ 127.023636, 37.50529 ] } },
{ "type": "Feature", "properties": { "STORE_NAME": "영동2교", "STORE_TYPE": "general", "ADDRESS": "서울특별시 서초구 논현로 139, 대흥빌딩 (양재동)", "SIG_CD": "11650", "SIG_KOR_NM": "서초구" }, "geometry": { "type": "Point", "coordinates": [ 127.0425748, 37.48203954 ] } },
{ "type": "Feature", "properties": { "STORE_NAME": "남부터미널2", "STORE_TYPE": "general", "ADDRESS": "서울특별시 서초구 효령로 274 (서초동)", "SIG_CD": "11650", "SIG_KOR_NM": "서초구" }, "geometry": { "type": "Point", "coordinates": [ 127.0142192, 37.48436736 ] } },
{ "type": "Feature", "properties": { "STORE_NAME": "서래마을입구", "STORE_TYPE": "general", "ADDRESS": "서울특별시 서초구 서래로 48 (반포동)", "SIG_CD": "11650", "SIG_KOR_NM": "서초구" }, "geometry": { "type": "Point", "coordinates": [ 126.9984801, 37.49925284 ] } },
{ "type": "Feature", "properties": { "STORE_NAME": "몬테소리", "STORE_TYPE": "general", "ADDRESS": "서울특별시 서초구 강남대로 399 (서초동)", "SIG_CD": "11650", "SIG_KOR_NM": "서초구" }, "geometry": { "type": "Point", "coordinates": [ 127.026865, 37.4982695 ] } },
{ "type": "Feature", "properties": { "STORE_NAME": "서초역", "STORE_TYPE": "general", "ADDRESS": "서울특별시 서초구 반포대로 118 (서초동)", "SIG_CD": "11650", "SIG_KOR_NM": "서초구" }, "geometry": { "type": "Point", "coordinates": [ 127.0086118, 37.49067495 ] } },
{ "type": "Feature", "properties": { "STORE_NAME": "예술의전당", "STORE_TYPE": "general", "ADDRESS": "서울특별시 서초구 남부순환로323길 1, 1층 (서초동)", "SIG_CD": "11650", "SIG_KOR_NM": "서초구" }, "geometry": { "type": "Point", "coordinates": [ 127.0134724, 37.48115265 ] } },
{ "type": "Feature", "properties": { "STORE_NAME": "교대법원", "STORE_TYPE": "general", "ADDRESS": "서울특별시 서초구 서초중앙로 164 (서초동)", "SIG_CD": "11650", "SIG_KOR_NM": "서초구" }, "geometry": { "type": "Point", "coordinates": [ 127.013336, 37.496329 ] } },
{ "type": "Feature", "properties": { "STORE_NAME": "강남GT타워", "STORE_TYPE": "general", "ADDRESS": "서울특별시 서초구 서초대로 411, GT타워 (서초동)", "SIG_CD": "11650", "SIG_KOR_NM": "서초구" }, "geometry": { "type": "Point", "coordinates": [ 127.025833, 37.498056 ] } },
{ "type": "Feature", "properties": { "STORE_NAME": "서초동", "STORE_TYPE": "general", "ADDRESS": "서울특별시 서초구 남부순환로339길 64, 현우빌딩 1층 (서초동)", "SIG_CD": "11650", "SIG_KOR_NM": "서초구" }, "geometry": { "type": "Point", "coordinates": [ 127.021525, 37.485941 ] } },
{ "type": "Feature", "properties": { "STORE_NAME": "서울교대", "STORE_TYPE": "general", "ADDRESS": "서울특별시 서초구 서초중앙로 64, 1층 (서초동)", "SIG_CD": "11650", "SIG_KOR_NM": "서초구" }, "geometry": { "type": "Point", "coordinates": [ 127.015134, 37.487397 ] } },
{ "type": "Feature", "properties": { "STORE_NAME": "강남에비뉴", "STORE_TYPE": "general", "ADDRESS": "서울특별시 서초구 서초대로77길 62, 강남역아이파크 B102~B105 (서초동)", "SIG_CD": "11650", "SIG_KOR_NM": "서초구" }, "geometry": { "type": "Point", "coordinates": [ 127.023894, 37.5027 ] } },
{ "type": "Feature", "properties": { "STORE_NAME": "미아이마트", "STORE_TYPE": "general", "ADDRESS": "서울 성북구 도봉로 17 ", "SIG_CD": "11290", "SIG_KOR_NM": "성북구" }, "geometry": { "type": "Point", "coordinates": [ 127.029921, 37.610678 ] } },
{ "type": "Feature", "properties": { "STORE_NAME": "종암DT", "STORE_TYPE": "generalDT", "ADDRESS": "서울특별시 성북구 종암로 17 (종암동)", "SIG_CD": "11290", "SIG_KOR_NM": "성북구" }, "geometry": { "type": "Point", "coordinates": [ 127.0360401, 37.5919525 ] } },
{ "type": "Feature", "properties": { "STORE_NAME": "미아", "STORE_TYPE": "general", "ADDRESS": "서울특별시 성북구 동소문로 314 (하월곡동)", "SIG_CD": "11290", "SIG_KOR_NM": "성북구" }, "geometry": { "type": "Point", "coordinates": [ 127.029303, 37.607581 ] } },
{ "type": "Feature", "properties": { "STORE_NAME": "성신여대정문", "STORE_TYPE": "general", "ADDRESS": "서울특별시 성북구 보문로34길 62 (동선동2가)", "SIG_CD": "11290", "SIG_KOR_NM": "성북구" }, "geometry": { "type": "Point", "coordinates": [ 127.0188, 37.59091 ] } },
{ "type": "Feature", "properties": { "STORE_NAME": "종암", "STORE_TYPE": "general", "ADDRESS": "서울특별시 성북구 종암로 122 (종암동)", "SIG_CD": "11290", "SIG_KOR_NM": "성북구" }, "geometry": { "type": "Point", "coordinates": [ 127.033847, 37.601095 ] } },
{ "type": "Feature", "properties": { "STORE_NAME": "삼선교", "STORE_TYPE": "general", "ADDRESS": "서울특별시 성북구 동소문로 10 (동소문동2가)", "SIG_CD": "11290", "SIG_KOR_NM": "성북구" }, "geometry": { "type": "Point", "coordinates": [ 127.0073207, 37.588696 ] } },
{ "type": "Feature", "properties": { "STORE_NAME": "월곡역", "STORE_TYPE": "general", "ADDRESS": "서울특별시 성북구 화랑로 76, 101-1호 (하월곡동)", "SIG_CD": "11290", "SIG_KOR_NM": "성북구" }, "geometry": { "type": "Point", "coordinates": [ 127.040446, 37.601718 ] } },
{ "type": "Feature", "properties": { "STORE_NAME": "고대", "STORE_TYPE": "general", "ADDRESS": "서울특별시 성북구 고려대로 24길 51 (안암동5가)", "SIG_CD": "11290", "SIG_KOR_NM": "성북구" }, "geometry": { "type": "Point", "coordinates": [ 127.0297352, 37.58397192 ] } },
{ "type": "Feature", "properties": { "STORE_NAME": "현대미아", "STORE_TYPE": "general", "ADDRESS": "서울특별시 성북구 동소문로 315, 현대백화점미아점 지하 1층 (길음동)", "SIG_CD": "11290", "SIG_KOR_NM": "성북구" }, "geometry": { "type": "Point", "coordinates": [ 127.0287483, 37.60837822 ] } },
{ "type": "Feature", "properties": { "STORE_NAME": "성신여대", "STORE_TYPE": "general", "ADDRESS": "서울특별시 성북구 동소문로24길 12 (동선동1가)", "SIG_CD": "11290", "SIG_KOR_NM": "성북구" }, "geometry": { "type": "Point", "coordinates": [ 127.018379, 37.593135 ] } },
{ "type": "Feature", "properties": { "STORE_NAME": "안암역", "STORE_TYPE": "general", "ADDRESS": "서울특별시 성북구 고려대로 102-2 (안암동5가)", "SIG_CD": "11290", "SIG_KOR_NM": "성북구" }, "geometry": { "type": "Point", "coordinates": [ 127.030556, 37.586319 ] } },
{ "type": "Feature", "properties": { "STORE_NAME": "한성대입구역", "STORE_TYPE": "general", "ADDRESS": "서울특별시 성북구 성북로 11 (성북동1가)", "SIG_CD": "11290", "SIG_KOR_NM": "성북구" }, "geometry": { "type": "Point", "coordinates": [ 127.004839, 37.589054 ] } },
{ "type": "Feature", "properties": { "STORE_NAME": "송파나루역DT", "STORE_TYPE": "generalDT", "ADDRESS": "서울특별시 송파구 오금로 142 (송파동)", "SIG_CD": "11710", "SIG_KOR_NM": "송파구" }, "geometry": { "type": "Point", "coordinates": [ 127.1102658, 37.510793 ] } },
{ "type": "Feature", "properties": { "STORE_NAME": "잠실시그마타워", "STORE_TYPE": "general", "ADDRESS": "서울특별시 송파구 올림픽로 289 (신천동)", "SIG_CD": "11710", "SIG_KOR_NM": "송파구" }, "geometry": { "type": "Point", "coordinates": [ 127.102493, 37.514567 ] } },
{ "type": "Feature", "properties": { "STORE_NAME": "문정법원로R", "STORE_TYPE": "reserve", "ADDRESS": "서울특별시 송파구 송파대로 201 (문정동)", "SIG_CD": "11710", "SIG_KOR_NM": "송파구" }, "geometry": { "type": "Point", "coordinates": [ 127.119164, 37.487447 ] } },
{ "type": "Feature", "properties": { "STORE_NAME": "송파개롱역", "STORE_TYPE": "general", "ADDRESS": "서울특별시 송파구 오금로 420 (가락동)", "SIG_CD": "11710", "SIG_KOR_NM": "송파구" }, "geometry": { "type": "Point", "coordinates": [ 127.13652, 37.496956 ] } },
{ "type": "Feature", "properties": { "STORE_NAME": "문정하비오", "STORE_TYPE": "general", "ADDRESS": "서울특별시 송파구 송파대로 111 (문정동, 파크하비오) 204동 104호~107호", "SIG_CD": "11710", "SIG_KOR_NM": "송파구" }, "geometry": { "type": "Point", "coordinates": [ 127.123446, 37.481925 ] } },
{ "type": "Feature", "properties": { "STORE_NAME": "문정역", "STORE_TYPE": "general", "ADDRESS": "서울특별시 송파구 송파대로 167 (문정동)테라타워 B동 137호~139호,204호", "SIG_CD": "11710", "SIG_KOR_NM": "송파구" }, "geometry": { "type": "Point", "coordinates": [ 127.122237, 37.484813 ] } },
{ "type": "Feature", "properties": { "STORE_NAME": "잠실대교남단R", "STORE_TYPE": "reserve", "ADDRESS": "서울특별시 송파구 올림픽로35길 141 (신천동)", "SIG_CD": "11710", "SIG_KOR_NM": "송파구" }, "geometry": { "type": "Point", "coordinates": [ 127.099006, 37.515511 ] } },
{ "type": "Feature", "properties": { "STORE_NAME": "송파위례", "STORE_TYPE": "general", "ADDRESS": "서울특별시 송파구 위례광장로 230 (장지동, 위례2차아이파크)", "SIG_CD": "11710", "SIG_KOR_NM": "송파구" }, "geometry": { "type": "Point", "coordinates": [ 127.144067, 37.478264 ] } },
{ "type": "Feature", "properties": { "STORE_NAME": "송파방이DT", "STORE_TYPE": "generalDT", "ADDRESS": "서울특별시 송파구 오금로 241 (방이동)", "SIG_CD": "11710", "SIG_KOR_NM": "송파구" }, "geometry": { "type": "Point", "coordinates": [ 127.120495, 37.506564 ] } },
{ "type": "Feature", "properties": { "STORE_NAME": "송파구청", "STORE_TYPE": "general", "ADDRESS": "서울특별시 송파구 오금로 87 (방이동)", "SIG_CD": "11710", "SIG_KOR_NM": "송파구" }, "geometry": { "type": "Point", "coordinates": [ 127.107404, 37.514573 ] } },
{ "type": "Feature", "properties": { "STORE_NAME": "올림픽평화의문", "STORE_TYPE": "general", "ADDRESS": "서울특별시 송파구 위례성대로 38 (방이동) 해태그린피아빌라트", "SIG_CD": "11710", "SIG_KOR_NM": "송파구" }, "geometry": { "type": "Point", "coordinates": [ 127.1164819, 37.5156426 ] } },
{ "type": "Feature", "properties": { "STORE_NAME": "송파아이파크", "STORE_TYPE": "general", "ADDRESS": "서울특별시 송파구 법원로 55 (문정동)", "SIG_CD": "11710", "SIG_KOR_NM": "송파구" }, "geometry": { "type": "Point", "coordinates": [ 127.122379, 37.479892 ] } },
{ "type": "Feature", "properties": { "STORE_NAME": "송파사거리", "STORE_TYPE": "general", "ADDRESS": "서울특별시 송파구 송파대로 386 (송파동)", "SIG_CD": "11710", "SIG_KOR_NM": "송파구" }, "geometry": { "type": "Point", "coordinates": [ 127.1103904, 37.5022788 ] } },
{ "type": "Feature", "properties": { "STORE_NAME": "석촌서호", "STORE_TYPE": "general", "ADDRESS": "서울특별시 송파구 석촌호수로 176 (삼전동)", "SIG_CD": "11710", "SIG_KOR_NM": "송파구" }, "geometry": { "type": "Point", "coordinates": [ 127.0964684, 37.5063929 ] } },
{ "type": "Feature", "properties": { "STORE_NAME": "문정로데오", "STORE_TYPE": "general", "ADDRESS": "서울특별시 송파구 동남로 141 (가락동)", "SIG_CD": "11710", "SIG_KOR_NM": "송파구" }, "geometry": { "type": "Point", "coordinates": [ 127.1262696, 37.491905 ] } },
{ "type": "Feature", "properties": { "STORE_NAME": "올림픽훼미리", "STORE_TYPE": "general", "ADDRESS": "서울특별시 송파구 중대로 68 (문정동)", "SIG_CD": "11710", "SIG_KOR_NM": "송파구" }, "geometry": { "type": "Point", "coordinates": [ 127.116308, 37.491626 ] } },
{ "type": "Feature", "properties": { "STORE_NAME": "올림픽공원남문", "STORE_TYPE": "general", "ADDRESS": "서울특별시 송파구 위례성대로 102 (방이동)", "SIG_CD": "11710", "SIG_KOR_NM": "송파구" }, "geometry": { "type": "Point", "coordinates": [ 127.123113, 37.5133 ] } },
{ "type": "Feature", "properties": { "STORE_NAME": "방이역", "STORE_TYPE": "general", "ADDRESS": "서울특별시 송파구 마천로 53, 1~2층 (오금동)", "SIG_CD": "11710", "SIG_KOR_NM": "송파구" }, "geometry": { "type": "Point", "coordinates": [ 127.126569, 37.508666 ] } },
{ "type": "Feature", "properties": { "STORE_NAME": "석촌호수", "STORE_TYPE": "general", "ADDRESS": "서울특별시 송파구 석촌호수로 262 (송파동)", "SIG_CD": "11710", "SIG_KOR_NM": "송파구" }, "geometry": { "type": "Point", "coordinates": [ 127.104993, 37.509581 ] } },
{ "type": "Feature", "properties": { "STORE_NAME": "잠실푸르지오월드", "STORE_TYPE": "general", "ADDRESS": "서울특별시 송파구 올림픽로35가길 9, 잠실푸르지오월드마크 1층 (신천동)", "SIG_CD": "11710", "SIG_KOR_NM": "송파구" }, "geometry": { "type": "Point", "coordinates": [ 127.103426, 37.517649 ] } },
{ "type": "Feature", "properties": { "STORE_NAME": "잠실새내역", "STORE_TYPE": "general", "ADDRESS": "서울특별시 송파구 올림픽로 96 (잠실동)", "SIG_CD": "11710", "SIG_KOR_NM": "송파구" }, "geometry": { "type": "Point", "coordinates": [ 127.081062, 37.511679 ] } },
{ "type": "Feature", "properties": { "STORE_NAME": "잠실역", "STORE_TYPE": "general", "ADDRESS": "서울특별시 송파구 송파대로 562, 한빛프라자 1층, 2층 (신천동)", "SIG_CD": "11710", "SIG_KOR_NM": "송파구" }, "geometry": { "type": "Point", "coordinates": [ 127.099231, 37.515272 ] } },
{ "type": "Feature", "properties": { "STORE_NAME": "갤러리아팰리스", "STORE_TYPE": "reserve", "ADDRESS": "서울특별시 송파구 올림픽로 212, 갤러리아 팰리스 (잠실동)", "SIG_CD": "11710", "SIG_KOR_NM": "송파구" }, "geometry": { "type": "Point", "coordinates": [ 127.0938059, 37.51108365 ] } },
{ "type": "Feature", "properties": { "STORE_NAME": "아시아선수촌", "STORE_TYPE": "general", "ADDRESS": "서울특별시 송파구 백제고분로 69 (잠실동)", "SIG_CD": "11710", "SIG_KOR_NM": "송파구" }, "geometry": { "type": "Point", "coordinates": [ 127.0790472, 37.51052862 ] } },
{ "type": "Feature", "properties": { "STORE_NAME": "올림픽아파트", "STORE_TYPE": "general", "ADDRESS": "서울특별시 송파구 양재대로 1222 (방이동)", "SIG_CD": "11710", "SIG_KOR_NM": "송파구" }, "geometry": { "type": "Point", "coordinates": [ 127.133237, 37.515315 ] } },
{ "type": "Feature", "properties": { "STORE_NAME": "가락본동", "STORE_TYPE": "general", "ADDRESS": "서울특별시 송파구 송파대로30길 13 (가락동)", "SIG_CD": "11710", "SIG_KOR_NM": "송파구" }, "geometry": { "type": "Point", "coordinates": [ 127.118785, 37.494895 ] } },
{ "type": "Feature", "properties": { "STORE_NAME": "석촌역", "STORE_TYPE": "general", "ADDRESS": "서울특별시 송파구 백제고분로 358, 1층 (석촌동)", "SIG_CD": "11710", "SIG_KOR_NM": "송파구" }, "geometry": { "type": "Point", "coordinates": [ 127.106107699999896, 37.5042626 ] } },
{ "type": "Feature", "properties": { "STORE_NAME": "가락시장역", "STORE_TYPE": "general", "ADDRESS": "서울특별시 송파구 중대로 121, 롯데캐슬 파인힐 1층 (가락동)", "SIG_CD": "11710", "SIG_KOR_NM": "송파구" }, "geometry": { "type": "Point", "coordinates": [ 127.121354, 37.494299 ] } },
{ "type": "Feature", "properties": { "STORE_NAME": "가든파이브", "STORE_TYPE": "general", "ADDRESS": "서울특별시 송파구 충민로 10 (문정동) 가든파이브툴", "SIG_CD": "11710", "SIG_KOR_NM": "송파구" }, "geometry": { "type": "Point", "coordinates": [ 127.1193703, 37.4782316 ] } },
{ "type": "Feature", "properties": { "STORE_NAME": "등촌역", "STORE_TYPE": "general", "ADDRESS": "서울특별시 양천구 공항대로 566 (목동) 1층 2층", "SIG_CD": "11470", "SIG_KOR_NM": "양천구" }, "geometry": { "type": "Point", "coordinates": [ 126.86807, 37.548884 ] } },
{ "type": "Feature", "properties": { "STORE_NAME": "목동행복한", "STORE_TYPE": "general", "ADDRESS": "서울특별시 양천구 목동동로 309 (목동)", "SIG_CD": "11470", "SIG_KOR_NM": "양천구" }, "geometry": { "type": "Point", "coordinates": [ 126.876099, 37.529147 ] } },
{ "type": "Feature", "properties": { "STORE_NAME": "신정DT", "STORE_TYPE": "generalDT", "ADDRESS": "서울특별시 양천구 신월로 341 (신정동)", "SIG_CD": "11470", "SIG_KOR_NM": "양천구" }, "geometry": { "type": "Point", "coordinates": [ 126.858865, 37.521993 ] } },
{ "type": "Feature", "properties": { "STORE_NAME": "목동역", "STORE_TYPE": "general", "ADDRESS": "서울특별시 양천구 목동로 203 (신정동) 1층일부", "SIG_CD": "11470", "SIG_KOR_NM": "양천구" }, "geometry": { "type": "Point", "coordinates": [ 126.863986, 37.526684 ] } },
{ "type": "Feature", "properties": { "STORE_NAME": "목동오목로", "STORE_TYPE": "general", "ADDRESS": "서울특별시 양천구 오목로 279 (목동) 102,103,104,105호", "SIG_CD": "11470", "SIG_KOR_NM": "양천구" }, "geometry": { "type": "Point", "coordinates": [ 126.868438, 37.525923 ] } },
{ "type": "Feature", "properties": { "STORE_NAME": "목동8단지", "STORE_TYPE": "general", "ADDRESS": "서울특별시 양천구 목동서로 299 (신정동)", "SIG_CD": "11470", "SIG_KOR_NM": "양천구" }, "geometry": { "type": "Point", "coordinates": [ 126.868841, 37.520518 ] } },
{ "type": "Feature", "properties": { "STORE_NAME": "오목교역", "STORE_TYPE": "general", "ADDRESS": "서울특별시 양천구 오목로 354 (목동)", "SIG_CD": "11470", "SIG_KOR_NM": "양천구" }, "geometry": { "type": "Point", "coordinates": [ 126.876521200000099, 37.523588200000013 ] } },
{ "type": "Feature", "properties": { "STORE_NAME": "신월IC DT", "STORE_TYPE": "generalDT", "ADDRESS": "서울특별시 양천구 남부순환로 430 (신월동)", "SIG_CD": "11470", "SIG_KOR_NM": "양천구" }, "geometry": { "type": "Point", "coordinates": [ 126.831983, 37.5294984 ] } },
{ "type": "Feature", "properties": { "STORE_NAME": "목동7단지", "STORE_TYPE": "general", "ADDRESS": "서울특별시 양천구 목동서로 213 (목동) 세신비젼프라자", "SIG_CD": "11470", "SIG_KOR_NM": "양천구" }, "geometry": { "type": "Point", "coordinates": [ 126.87053, 37.528012 ] } },
{ "type": "Feature", "properties": { "STORE_NAME": "목동하이페리온", "STORE_TYPE": "general", "ADDRESS": "서울특별시 양천구 오목로 300 (목동)", "SIG_CD": "11470", "SIG_KOR_NM": "양천구" }, "geometry": { "type": "Point", "coordinates": [ 126.870316, 37.524931 ] } },
{ "type": "Feature", "properties": { "STORE_NAME": "목동5단지", "STORE_TYPE": "general", "ADDRESS": "서울특별시 양천구 목동동로 411, 1동 116호(목동, 부영그린타운3차)", "SIG_CD": "11470", "SIG_KOR_NM": "양천구" }, "geometry": { "type": "Point", "coordinates": [ 126.88212, 37.536706 ] } },
{ "type": "Feature", "properties": { "STORE_NAME": "목동", "STORE_TYPE": "general", "ADDRESS": "서울특별시 양천구 목동서로 67 (목동) 우성에펠타운", "SIG_CD": "11470", "SIG_KOR_NM": "양천구" }, "geometry": { "type": "Point", "coordinates": [ 126.8785597, 37.53638383 ] } },
{ "type": "Feature", "properties": { "STORE_NAME": "현대목동", "STORE_TYPE": "general", "ADDRESS": "서울특별시 양천구 목동동로 257, 현대백화점목동점 지하 2층 (목동)", "SIG_CD": "11470", "SIG_KOR_NM": "양천구" }, "geometry": { "type": "Point", "coordinates": [ 126.875023, 37.526848 ] } },
{ "type": "Feature", "properties": { "STORE_NAME": "목동파라곤", "STORE_TYPE": "general", "ADDRESS": "서울특별시 양천구 목동서로 155, 목동파라곤 1층 (목동)", "SIG_CD": "11470", "SIG_KOR_NM": "양천구" }, "geometry": { "type": "Point", "coordinates": [ 126.874996, 37.52947 ] } },
{ "type": "Feature", "properties": { "STORE_NAME": "샛강역", "STORE_TYPE": "general", "ADDRESS": "서울특별시 영등포구 여의대방로 376 (여의도동)", "SIG_CD": "11560", "SIG_KOR_NM": "영등포구" }, "geometry": { "type": "Point", "coordinates": [ 126.9312716, 37.5183551 ] } },
{ "type": "Feature", "properties": { "STORE_NAME": "영등포역", "STORE_TYPE": "general", "ADDRESS": "서울특별시 영등포구 경인로 870 (영등포동1가)", "SIG_CD": "11560", "SIG_KOR_NM": "영등포구" }, "geometry": { "type": "Point", "coordinates": [ 126.909139, 37.5169614 ] } },
{ "type": "Feature", "properties": { "STORE_NAME": "당산대로", "STORE_TYPE": "general", "ADDRESS": "서울특별시 영등포구 양평로 22 (당산동6가)", "SIG_CD": "11560", "SIG_KOR_NM": "영등포구" }, "geometry": { "type": "Point", "coordinates": [ 126.903804, 37.533121 ] } },
{ "type": "Feature", "properties": { "STORE_NAME": "여의도IFC몰(L1)R", "STORE_TYPE": "reserve", "ADDRESS": "서울특별시 영등포구 국제금융로 10 (여의도동)  지하1층 178호", "SIG_CD": "11560", "SIG_KOR_NM": "영등포구" }, "geometry": { "type": "Point", "coordinates": [ 126.925508, 37.525127 ] } },
{ "type": "Feature", "properties": { "STORE_NAME": "여의도KBS R", "STORE_TYPE": "reserve", "ADDRESS": "서울특별시 영등포구 의사당대로 26 (여의도동)", "SIG_CD": "11560", "SIG_KOR_NM": "영등포구" }, "geometry": { "type": "Point", "coordinates": [ 126.918456, 37.526596 ] } },
{ "type": "Feature", "properties": { "STORE_NAME": "여의도화재보험", "STORE_TYPE": "general", "ADDRESS": "서울특별시 영등포구 국제금융로6길 38 (여의도동)", "SIG_CD": "11560", "SIG_KOR_NM": "영등포구" }, "geometry": { "type": "Point", "coordinates": [ 126.926004, 37.521345 ] } },
{ "type": "Feature", "properties": { "STORE_NAME": "국회대로", "STORE_TYPE": "general", "ADDRESS": "서울특별시 영등포구 국회대로 786 (여의도동)", "SIG_CD": "11560", "SIG_KOR_NM": "영등포구" }, "geometry": { "type": "Point", "coordinates": [ 126.919549, 37.53026 ] } },
{ "type": "Feature", "properties": { "STORE_NAME": "영등포KT", "STORE_TYPE": "general", "ADDRESS": "서울특별시 영등포구 영중로 119 (영등포동8가)", "SIG_CD": "11560", "SIG_KOR_NM": "영등포구" }, "geometry": { "type": "Point", "coordinates": [ 126.904706, 37.526792 ] } },
{ "type": "Feature", "properties": { "STORE_NAME": "여의도공원R", "STORE_TYPE": "reserve", "ADDRESS": "서울특별시 영등포구 여의공원로 101 (여의도동)", "SIG_CD": "11560", "SIG_KOR_NM": "영등포구" }, "geometry": { "type": "Point", "coordinates": [ 126.924872, 37.529231 ] } },
{ "type": "Feature", "properties": { "STORE_NAME": "국회의사당역", "STORE_TYPE": "general", "ADDRESS": "서울특별시 영등포구 의사당대로 8 (여의도동)", "SIG_CD": "11560", "SIG_KOR_NM": "영등포구" }, "geometry": { "type": "Point", "coordinates": [ 126.916882, 37.527831 ] } },
{ "type": "Feature", "properties": { "STORE_NAME": "선유도역", "STORE_TYPE": "general", "ADDRESS": "서울특별시 영등포구 양평로 115 (양평동4가)", "SIG_CD": "11560", "SIG_KOR_NM": "영등포구" }, "geometry": { "type": "Point", "coordinates": [ 126.894594, 37.537268 ] } },
{ "type": "Feature", "properties": { "STORE_NAME": "여의도역", "STORE_TYPE": "general", "ADDRESS": "서울특별시 영등포구 의사당대로 83 (여의도동) 한국휴렛팩커드빌딩", "SIG_CD": "11560", "SIG_KOR_NM": "영등포구" }, "geometry": { "type": "Point", "coordinates": [ 126.923439, 37.523328 ] } },
{ "type": "Feature", "properties": { "STORE_NAME": "선유동이레빌딩", "STORE_TYPE": "general", "ADDRESS": "서울특별시 영등포구 선유동2로 57 (양평제1동) 이레빌딩", "SIG_CD": "11560", "SIG_KOR_NM": "영등포구" }, "geometry": { "type": "Point", "coordinates": [ 126.896912, 37.534109 ] } },
{ "type": "Feature", "properties": { "STORE_NAME": "동여의도", "STORE_TYPE": "general", "ADDRESS": "서울특별시 영등포구 국제금융로 86 (여의도동) 롯데캐슬 아이비", "SIG_CD": "11560", "SIG_KOR_NM": "영등포구" }, "geometry": { "type": "Point", "coordinates": [ 126.9317957, 37.5199494 ] } },
{ "type": "Feature", "properties": { "STORE_NAME": "여의도ABL타워", "STORE_TYPE": "general", "ADDRESS": "서울특별시 영등포구 의사당대로 147 (여의도동) 알리안츠타워", "SIG_CD": "11560", "SIG_KOR_NM": "영등포구" }, "geometry": { "type": "Point", "coordinates": [ 126.92779, 37.518749 ] } },
{ "type": "Feature", "properties": { "STORE_NAME": "영등포신길DT", "STORE_TYPE": "generalDT", "ADDRESS": "서울특별시 영등포구 신길로 137 (신길동)", "SIG_CD": "11560", "SIG_KOR_NM": "영등포구" }, "geometry": { "type": "Point", "coordinates": [ 126.910073, 37.504566 ] } },
{ "type": "Feature", "properties": { "STORE_NAME": "문래역", "STORE_TYPE": "general", "ADDRESS": "서울특별시 영등포구 당산로 34 (문래동3가)", "SIG_CD": "11560", "SIG_KOR_NM": "영등포구" }, "geometry": { "type": "Point", "coordinates": [ 126.896475, 37.517428 ] } },
{ "type": "Feature", "properties": { "STORE_NAME": "당산", "STORE_TYPE": "general", "ADDRESS": "서울특별시 영등포구 양평로 64 (당산동6가)", "SIG_CD": "11560", "SIG_KOR_NM": "영등포구" }, "geometry": { "type": "Point", "coordinates": [ 126.899942, 37.535164 ] } },
{ "type": "Feature", "properties": { "STORE_NAME": "여의도한양증권", "STORE_TYPE": "general", "ADDRESS": "서울특별시 영등포구 국제금융로6길 7 (여의도동) 한양증권", "SIG_CD": "11560", "SIG_KOR_NM": "영등포구" }, "geometry": { "type": "Point", "coordinates": [ 126.929093, 37.522418 ] } },
{ "type": "Feature", "properties": { "STORE_NAME": "여의도일신", "STORE_TYPE": "general", "ADDRESS": "서울특별시 영등포구 은행로 11 (여의도동) 1층 1부", "SIG_CD": "11560", "SIG_KOR_NM": "영등포구" }, "geometry": { "type": "Point", "coordinates": [ 126.920103, 37.528 ] } },
{ "type": "Feature", "properties": { "STORE_NAME": "신세계영등포B2", "STORE_TYPE": "general", "ADDRESS": "서울특별시 영등포구 영중로 9, 신세계백화점 B관 지하2층 (영등포동4가)", "SIG_CD": "11560", "SIG_KOR_NM": "영등포구" }, "geometry": { "type": "Point", "coordinates": [ 126.905608, 37.517162 ] } },
{ "type": "Feature", "properties": { "STORE_NAME": "하이테크시티", "STORE_TYPE": "general", "ADDRESS": "서울특별시 영등포구 경인로 775 (문래동3가) 에이스하이테크시티", "SIG_CD": "11560", "SIG_KOR_NM": "영등포구" }, "geometry": { "type": "Point", "coordinates": [ 126.8986474, 37.51467062 ] } },
{ "type": "Feature", "properties": { "STORE_NAME": "당산역", "STORE_TYPE": "general", "ADDRESS": "서울특별시 영등포구 당산로 231, 대원빌딩 1,2층 (당산동6가)", "SIG_CD": "11560", "SIG_KOR_NM": "영등포구" }, "geometry": { "type": "Point", "coordinates": [ 126.9018763, 37.5344337 ] } },
{ "type": "Feature", "properties": { "STORE_NAME": "서여의도", "STORE_TYPE": "general", "ADDRESS": "서울특별시 영등포구 국회대로70길 15-1 (여의도동)", "SIG_CD": "11560", "SIG_KOR_NM": "영등포구" }, "geometry": { "type": "Point", "coordinates": [ 126.920272, 37.52958977 ] } },
{ "type": "Feature", "properties": { "STORE_NAME": "여의도", "STORE_TYPE": "general", "ADDRESS": "서울특별시 영등포구 국제금융로2길 28 (여의도동)", "SIG_CD": "11560", "SIG_KOR_NM": "영등포구" }, "geometry": { "type": "Point", "coordinates": [ 126.9245179, 37.52403519 ] } },
{ "type": "Feature", "properties": { "STORE_NAME": "여의도미래에셋대우", "STORE_TYPE": "general", "ADDRESS": "서울특별시 영등포구 국제금융로 56, 대우증권빌딩 1층 (여의도동)", "SIG_CD": "11560", "SIG_KOR_NM": "영등포구" }, "geometry": { "type": "Point", "coordinates": [ 126.9296464, 37.52226158 ] } },
{ "type": "Feature", "properties": { "STORE_NAME": "롯데캐슬여의도", "STORE_TYPE": "general", "ADDRESS": "서울특별시 영등포구 의사당대로 127 (여의도동) 롯데캐슬앰파이어 1층 104호", "SIG_CD": "11560", "SIG_KOR_NM": "영등포구" }, "geometry": { "type": "Point", "coordinates": [ 126.9263678, 37.52025214 ] } },
{ "type": "Feature", "properties": { "STORE_NAME": "문래동", "STORE_TYPE": "general", "ADDRESS": "서울특별시 영등포구 선유로 64, 대창타운빌 1층 (문래동3가)", "SIG_CD": "11560", "SIG_KOR_NM": "영등포구" }, "geometry": { "type": "Point", "coordinates": [ 126.889652, 37.519602 ] } },
{ "type": "Feature", "properties": { "STORE_NAME": "신세계영등포B", "STORE_TYPE": "general", "ADDRESS": "서울특별시 영등포구 영중로 9, 신세계백화점 B관 1층 (영등포동4가)", "SIG_CD": "11560", "SIG_KOR_NM": "영등포구" }, "geometry": { "type": "Point", "coordinates": [ 126.905608, 37.517162 ] } },
{ "type": "Feature", "properties": { "STORE_NAME": "여의도호성", "STORE_TYPE": "general", "ADDRESS": "서울특별시 영등포구 여의대방로65길 24, 호성빌딩 1층 (여의도동)", "SIG_CD": "11560", "SIG_KOR_NM": "영등포구" }, "geometry": { "type": "Point", "coordinates": [ 126.929426, 37.520176 ] } },
{ "type": "Feature", "properties": { "STORE_NAME": "타임스퀘어B2", "STORE_TYPE": "general", "ADDRESS": "서울특별시 영등포구 영중로 15, 타임스퀘어 단지 지하2층 (영등포동4가)", "SIG_CD": "11560", "SIG_KOR_NM": "영등포구" }, "geometry": { "type": "Point", "coordinates": [ 126.903387, 37.516985 ] } },
{ "type": "Feature", "properties": { "STORE_NAME": "영등포본동", "STORE_TYPE": "general", "ADDRESS": "서울특별시 영등포구 영등포로 254 (영등포동3가)", "SIG_CD": "11560", "SIG_KOR_NM": "영등포구" }, "geometry": { "type": "Point", "coordinates": [ 126.909559, 37.518713 ] } },
{ "type": "Feature", "properties": { "STORE_NAME": "타임스퀘어", "STORE_TYPE": "general", "ADDRESS": "서울특별시 영등포구 영중로 15 (영등포동4가) 타임스퀘어", "SIG_CD": "11560", "SIG_KOR_NM": "영등포구" }, "geometry": { "type": "Point", "coordinates": [ 126.903387, 37.516985 ] } },
{ "type": "Feature", "properties": { "STORE_NAME": "여의도의사당", "STORE_TYPE": "general", "ADDRESS": "서울특별시 영등포구 국회대로74길 12, 남중빌딩 1층 (여의도동)", "SIG_CD": "11560", "SIG_KOR_NM": "영등포구" }, "geometry": { "type": "Point", "coordinates": [ 126.92109, 37.530023 ] } },
{ "type": "Feature", "properties": { "STORE_NAME": "여의도IFC(1F)", "STORE_TYPE": "general", "ADDRESS": "서울특별시 영등포구 국제금융로 10 (여의도동)", "SIG_CD": "11560", "SIG_KOR_NM": "영등포구" }, "geometry": { "type": "Point", "coordinates": [ 126.924668, 37.525273 ] } },
{ "type": "Feature", "properties": { "STORE_NAME": "불광역", "STORE_TYPE": "general", "ADDRESS": "서울시 은평구 통일로 715 ", "SIG_CD": "11380", "SIG_KOR_NM": "은평구" }, "geometry": { "type": "Point", "coordinates": [ 126.9303971, 37.609382 ] } },
{ "type": "Feature", "properties": { "STORE_NAME": "구파발사거리", "STORE_TYPE": "general", "ADDRESS": "서울시 은평구 진관3로 21 은평엘크루 101동 105-108호", "SIG_CD": "11380", "SIG_KOR_NM": "은평구" }, "geometry": { "type": "Point", "coordinates": [ 126.91881, 37.639617 ] } },
{ "type": "Feature", "properties": { "STORE_NAME": "연신내역사거리", "STORE_TYPE": "general", "ADDRESS": "서울특별시 은평구 통일로 842 (불광동)", "SIG_CD": "11380", "SIG_KOR_NM": "은평구" }, "geometry": { "type": "Point", "coordinates": [ 126.922062, 37.61862 ] } },
{ "type": "Feature", "properties": { "STORE_NAME": "연신내", "STORE_TYPE": "general", "ADDRESS": "서울특별시 은평구 통일로 867 (갈현동)", "SIG_CD": "11380", "SIG_KOR_NM": "은평구" }, "geometry": { "type": "Point", "coordinates": [ 126.919913, 37.620417 ] } },
{ "type": "Feature", "properties": { "STORE_NAME": "구파발역", "STORE_TYPE": "general", "ADDRESS": "서울특별시 은평구 진관2로 12", "SIG_CD": "11380", "SIG_KOR_NM": "은평구" }, "geometry": { "type": "Point", "coordinates": [ 126.918881, 37.63446 ] } },
{ "type": "Feature", "properties": { "STORE_NAME": "은평구청입구", "STORE_TYPE": "general", "ADDRESS": "서울특별시 은평구 은평로 170 (응암동)", "SIG_CD": "11380", "SIG_KOR_NM": "은평구" }, "geometry": { "type": "Point", "coordinates": [ 126.926789, 37.601042 ] } },
{ "type": "Feature", "properties": { "STORE_NAME": "은평이마트", "STORE_TYPE": "general", "ADDRESS": "서울특별시 은평구 은평로 111 (응암동)", "SIG_CD": "11380", "SIG_KOR_NM": "은평구" }, "geometry": { "type": "Point", "coordinates": [ 126.9202735, 37.60037923 ] } },
{ "type": "Feature", "properties": { "STORE_NAME": "구산역", "STORE_TYPE": "general", "ADDRESS": "서울특별시 은평구 연서로 146 (대조동)", "SIG_CD": "11380", "SIG_KOR_NM": "은평구" }, "geometry": { "type": "Point", "coordinates": [ 126.917678, 37.611745 ] } },
{ "type": "Feature", "properties": { "STORE_NAME": "연합뉴스", "STORE_TYPE": "general", "ADDRESS": "서울특별시 종로구 율곡로2길 25 (수송동)", "SIG_CD": "11110", "SIG_KOR_NM": "종로구" }, "geometry": { "type": "Point", "coordinates": [ 126.980459000000494, 37.5743289 ] } },
{ "type": "Feature", "properties": { "STORE_NAME": "혜화역", "STORE_TYPE": "general", "ADDRESS": "서울시 종로구 대학로12길 4 1~2층", "SIG_CD": "11110", "SIG_KOR_NM": "종로구" }, "geometry": { "type": "Point", "coordinates": [ 127.002185, 37.5824779 ] } },
{ "type": "Feature", "properties": { "STORE_NAME": "경희궁로", "STORE_TYPE": "general", "ADDRESS": "서울특별시 종로구 새문안로3길 15 (당주동)", "SIG_CD": "11110", "SIG_KOR_NM": "종로구" }, "geometry": { "type": "Point", "coordinates": [ 126.972343, 37.571759 ] } },
{ "type": "Feature", "properties": { "STORE_NAME": "종로평창동", "STORE_TYPE": "general", "ADDRESS": "서울특별시 종로구 평창12길 3 (평창동)", "SIG_CD": "11110", "SIG_KOR_NM": "종로구" }, "geometry": { "type": "Point", "coordinates": [ 126.967213, 37.606149 ] } },
{ "type": "Feature", "properties": { "STORE_NAME": "광화문우체국", "STORE_TYPE": "general", "ADDRESS": "서울특별시 종로구 종로 6 (서린동)", "SIG_CD": "11110", "SIG_KOR_NM": "종로구" }, "geometry": { "type": "Point", "coordinates": [ 126.978083, 37.569854 ] } },
{ "type": "Feature", "properties": { "STORE_NAME": "더종로R", "STORE_TYPE": "reserve", "ADDRESS": "서울특별시 종로구 종로 51 (종로2가)", "SIG_CD": "11110", "SIG_KOR_NM": "종로구" }, "geometry": { "type": "Point", "coordinates": [ 126.983494, 37.570804 ] } },
{ "type": "Feature", "properties": { "STORE_NAME": "독립문역", "STORE_TYPE": "general", "ADDRESS": "서울특별시 종로구 통일로 168-1 (교남동)", "SIG_CD": "11110", "SIG_KOR_NM": "종로구" }, "geometry": { "type": "Point", "coordinates": [ 126.961269, 37.571432 ] } },
{ "type": "Feature", "properties": { "STORE_NAME": "정부서울청사R", "STORE_TYPE": "reserve", "ADDRESS": "서울특별시 종로구 새문안로5가길 28 (적선동)", "SIG_CD": "11110", "SIG_KOR_NM": "종로구" }, "geometry": { "type": "Point", "coordinates": [ 126.973571, 37.574411 ] } },
{ "type": "Feature", "properties": { "STORE_NAME": "동묘앞역", "STORE_TYPE": "general", "ADDRESS": "서울특별시 종로구 종로 344 (숭인동, 대우디오빌) 101호 일부, 201호 일부", "SIG_CD": "11110", "SIG_KOR_NM": "종로구" }, "geometry": { "type": "Point", "coordinates": [ 127.016072, 37.5727 ] } },
{ "type": "Feature", "properties": { "STORE_NAME": "종로구청", "STORE_TYPE": "general", "ADDRESS": "서울특별시 종로구 삼봉로 71 (수송동)", "SIG_CD": "11110", "SIG_KOR_NM": "종로구" }, "geometry": { "type": "Point", "coordinates": [ 126.981138, 37.572662 ] } },
{ "type": "Feature", "properties": { "STORE_NAME": "북촌로", "STORE_TYPE": "general", "ADDRESS": "서울특별시 종로구 북촌로4길 23 (계동)", "SIG_CD": "11110", "SIG_KOR_NM": "종로구" }, "geometry": { "type": "Point", "coordinates": [ 126.986431, 37.579462 ] } },
{ "type": "Feature", "properties": { "STORE_NAME": "종로수송", "STORE_TYPE": "general", "ADDRESS": "서울특별시 종로구 종로5길 30 (청진동) 1~3층", "SIG_CD": "11110", "SIG_KOR_NM": "종로구" }, "geometry": { "type": "Point", "coordinates": [ 126.9807831, 37.5714931 ] } },
{ "type": "Feature", "properties": { "STORE_NAME": "새문안로", "STORE_TYPE": "general", "ADDRESS": "서울특별시 종로구 새문안로 92 (신문로1가) 광화문오피시아빌딩", "SIG_CD": "11110", "SIG_KOR_NM": "종로구" }, "geometry": { "type": "Point", "coordinates": [ 126.9748903, 37.5696597 ] } },
{ "type": "Feature", "properties": { "STORE_NAME": "안국", "STORE_TYPE": "general", "ADDRESS": "서울특별시 종로구 북촌로 5-1 (재동)", "SIG_CD": "11110", "SIG_KOR_NM": "종로구" }, "geometry": { "type": "Point", "coordinates": [ 126.985635, 37.577338 ] } },
{ "type": "Feature", "properties": { "STORE_NAME": "삼청동", "STORE_TYPE": "general", "ADDRESS": "서울특별시 종로구 삼청로 111-1 (삼청동)", "SIG_CD": "11110", "SIG_KOR_NM": "종로구" }, "geometry": { "type": "Point", "coordinates": [ 126.9817512, 37.585381 ] } },
{ "type": "Feature", "properties": { "STORE_NAME": "광화문D타워", "STORE_TYPE": "general", "ADDRESS": "서울특별시 종로구 종로3길 17 (청진동) D타워", "SIG_CD": "11110", "SIG_KOR_NM": "종로구" }, "geometry": { "type": "Point", "coordinates": [ 126.9788297, 37.5714 ] } },
{ "type": "Feature", "properties": { "STORE_NAME": "서울극장", "STORE_TYPE": "general", "ADDRESS": "서울특별시 종로구 돈화문로 13 (관수동) 서울극장", "SIG_CD": "11110", "SIG_KOR_NM": "종로구" }, "geometry": { "type": "Point", "coordinates": [ 126.9917911, 37.56975769 ] } },
{ "type": "Feature", "properties": { "STORE_NAME": "적선", "STORE_TYPE": "general", "ADDRESS": "서울특별시 종로구 새문안로5길 55, 노스게이트빌딩 1층 (적선동)", "SIG_CD": "11110", "SIG_KOR_NM": "종로구" }, "geometry": { "type": "Point", "coordinates": [ 126.9739361, 37.57520431 ] } },
{ "type": "Feature", "properties": { "STORE_NAME": "인사", "STORE_TYPE": "general", "ADDRESS": "서울특별시 종로구 인사동길 14 (인사동)", "SIG_CD": "11110", "SIG_KOR_NM": "종로구" }, "geometry": { "type": "Point", "coordinates": [ 126.9870349, 37.5721293 ] } },
{ "type": "Feature", "properties": { "STORE_NAME": "영풍문고", "STORE_TYPE": "general", "ADDRESS": "서울특별시 종로구 청계천로 41 (서린동) 영풍빌딩", "SIG_CD": "11110", "SIG_KOR_NM": "종로구" }, "geometry": { "type": "Point", "coordinates": [ 126.9821243, 37.5695584 ] } },
{ "type": "Feature", "properties": { "STORE_NAME": "광화문R", "STORE_TYPE": "reserve", "ADDRESS": "서울특별시 종로구 세종대로 167, 현대해상본사사옥 별관내 (세종로)", "SIG_CD": "11110", "SIG_KOR_NM": "종로구" }, "geometry": { "type": "Point", "coordinates": [ 126.9762872, 37.5712293 ] } },
{ "type": "Feature", "properties": { "STORE_NAME": "성대입구", "STORE_TYPE": "general", "ADDRESS": "서울특별시 종로구 창경궁로 235 (명륜3가)", "SIG_CD": "11110", "SIG_KOR_NM": "종로구" }, "geometry": { "type": "Point", "coordinates": [ 126.998392, 37.582892 ] } },
{ "type": "Feature", "properties": { "STORE_NAME": "스페이스본", "STORE_TYPE": "general", "ADDRESS": "서울특별시 종로구 사직로8길 4 (사직동) 광화문 풍림스페이스본", "SIG_CD": "11110", "SIG_KOR_NM": "종로구" }, "geometry": { "type": "Point", "coordinates": [ 126.9692494, 37.57532212 ] } },
{ "type": "Feature", "properties": { "STORE_NAME": "주얼리시티", "STORE_TYPE": "general", "ADDRESS": "서울특별시 종로구 종로 183 (인의동) 효성주얼리시티", "SIG_CD": "11110", "SIG_KOR_NM": "종로구" }, "geometry": { "type": "Point", "coordinates": [ 126.998705, 37.57154914 ] } },
{ "type": "Feature", "properties": { "STORE_NAME": "종각", "STORE_TYPE": "general", "ADDRESS": "서울특별시 종로구 종로 64 (종로2가)", "SIG_CD": "11110", "SIG_KOR_NM": "종로구" }, "geometry": { "type": "Point", "coordinates": [ 126.9845281, 37.5699183 ] } },
{ "type": "Feature", "properties": { "STORE_NAME": "광교", "STORE_TYPE": "general", "ADDRESS": "서울특별시 종로구 청계천로 59 (관철동)", "SIG_CD": "11110", "SIG_KOR_NM": "종로구" }, "geometry": { "type": "Point", "coordinates": [ 126.9842163, 37.568928 ] } },
{ "type": "Feature", "properties": { "STORE_NAME": "동숭로아트", "STORE_TYPE": "general", "ADDRESS": "서울특별시 종로구 동숭길 110 (동숭동)", "SIG_CD": "11110", "SIG_KOR_NM": "종로구" }, "geometry": { "type": "Point", "coordinates": [ 127.003876, 37.582969 ] } },
{ "type": "Feature", "properties": { "STORE_NAME": "종로관철", "STORE_TYPE": "general", "ADDRESS": "서울특별시 종로구 종로12길 21, 2층 (관철동)", "SIG_CD": "11110", "SIG_KOR_NM": "종로구" }, "geometry": { "type": "Point", "coordinates": [ 126.986013, 37.569058 ] } },
{ "type": "Feature", "properties": { "STORE_NAME": "경복궁역", "STORE_TYPE": "general", "ADDRESS": "서울특별시 종로구 자하문로4길 6, 1층 (통의동)", "SIG_CD": "11110", "SIG_KOR_NM": "종로구" }, "geometry": { "type": "Point", "coordinates": [ 126.9727453, 37.5771508 ] } },
{ "type": "Feature", "properties": { "STORE_NAME": "이마빌딩", "STORE_TYPE": "general", "ADDRESS": "서울특별시 종로구 종로1길 42 (수송동)", "SIG_CD": "11110", "SIG_KOR_NM": "종로구" }, "geometry": { "type": "Point", "coordinates": [ 126.978971499999901, 37.5738637 ] } },
{ "type": "Feature", "properties": { "STORE_NAME": "대명거리", "STORE_TYPE": "general", "ADDRESS": "서울특별시 종로구 대명길 5 (명륜4가)", "SIG_CD": "11110", "SIG_KOR_NM": "종로구" }, "geometry": { "type": "Point", "coordinates": [ 127.0011593, 37.58349633 ] } },
{ "type": "Feature", "properties": { "STORE_NAME": "마로니에공원", "STORE_TYPE": "general", "ADDRESS": "서울특별시 종로구 대학로 116, 1-2층 (동숭동)", "SIG_CD": "11110", "SIG_KOR_NM": "종로구" }, "geometry": { "type": "Point", "coordinates": [ 127.0023412, 37.58154296 ] } },
{ "type": "Feature", "properties": { "STORE_NAME": "종로3가", "STORE_TYPE": "general", "ADDRESS": "서울특별시 종로구 종로 113-1, 1-4층 (종로3가)", "SIG_CD": "11110", "SIG_KOR_NM": "종로구" }, "geometry": { "type": "Point", "coordinates": [ 126.9902055, 37.5705527 ] } },
{ "type": "Feature", "properties": { "STORE_NAME": "대학로", "STORE_TYPE": "general", "ADDRESS": "서울특별시 종로구 대학로 57, 홍익대학교 대학로캠퍼스 內 (연건동)", "SIG_CD": "11110", "SIG_KOR_NM": "종로구" }, "geometry": { "type": "Point", "coordinates": [ 127.001449, 37.576509 ] } },
{ "type": "Feature", "properties": { "STORE_NAME": "경복궁사거리", "STORE_TYPE": "general", "ADDRESS": "서울특별시 종로구 율곡로 6, B동 101호(중학동, 트윈트리타워)", "SIG_CD": "11110", "SIG_KOR_NM": "종로구" }, "geometry": { "type": "Point", "coordinates": [ 126.980581, 37.575578 ] } },
{ "type": "Feature", "properties": { "STORE_NAME": "종로관수", "STORE_TYPE": "general", "ADDRESS": "서울특별시 종로구 삼일대로20길 13 (관수동)", "SIG_CD": "11110", "SIG_KOR_NM": "종로구" }, "geometry": { "type": "Point", "coordinates": [ 126.988665, 37.569385 ] } },
{ "type": "Feature", "properties": { "STORE_NAME": "숭례문북창", "STORE_TYPE": "general", "ADDRESS": "서울특별시 중구 세종대로12길 12 (남대문로4가)", "SIG_CD": "11140", "SIG_KOR_NM": "중구" }, "geometry": { "type": "Point", "coordinates": [ 126.976838, 37.561725 ] } },
{ "type": "Feature", "properties": { "STORE_NAME": "동대문두타", "STORE_TYPE": "general", "ADDRESS": "서울특별시 중구 장충단로 275 (을지로6가)", "SIG_CD": "11140", "SIG_KOR_NM": "중구" }, "geometry": { "type": "Point", "coordinates": [ 127.008783834846, 37.568925126045478 ] } },
{ "type": "Feature", "properties": { "STORE_NAME": "대한상공회의소R", "STORE_TYPE": "reserve", "ADDRESS": "서울시 중구 세종대로 39 상공회의소회관 1층", "SIG_CD": "11140", "SIG_KOR_NM": "중구" }, "geometry": { "type": "Point", "coordinates": [ 126.973702, 37.560938 ] } },
{ "type": "Feature", "properties": { "STORE_NAME": "명동센트럴", "STORE_TYPE": "general", "ADDRESS": "서울특별시 중구 명동9길 16 (명동1가)", "SIG_CD": "11140", "SIG_KOR_NM": "중구" }, "geometry": { "type": "Point", "coordinates": [ 126.985233, 37.564669 ] } },
{ "type": "Feature", "properties": { "STORE_NAME": "국립중앙의료원", "STORE_TYPE": "general", "ADDRESS": "서울특별시 중구 을지로 251 (을지로6가)", "SIG_CD": "11140", "SIG_KOR_NM": "중구" }, "geometry": { "type": "Point", "coordinates": [ 127.0062376, 37.566516 ] } },
{ "type": "Feature", "properties": { "STORE_NAME": "동국대", "STORE_TYPE": "general", "ADDRESS": "서울특별시 중구 서애로 1길 11", "SIG_CD": "11140", "SIG_KOR_NM": "중구" }, "geometry": { "type": "Point", "coordinates": [ 126.998437, 37.561542 ] } },
{ "type": "Feature", "properties": { "STORE_NAME": "신세계본점5F", "STORE_TYPE": "general", "ADDRESS": "서울특별시 중구 소공로 63 (충무로1가)", "SIG_CD": "11140", "SIG_KOR_NM": "중구" }, "geometry": { "type": "Point", "coordinates": [ 126.981134, 37.560951 ] } },
{ "type": "Feature", "properties": { "STORE_NAME": "을지로내외빌딩R", "STORE_TYPE": "reserve", "ADDRESS": "서울특별시 중구 을지로 51 (을지로2가)", "SIG_CD": "11140", "SIG_KOR_NM": "중구" }, "geometry": { "type": "Point", "coordinates": [ 126.983663, 37.566479 ] } },
{ "type": "Feature", "properties": { "STORE_NAME": "대우재단빌딩", "STORE_TYPE": "general", "ADDRESS": "서울특별시 중구 퇴계로 18 (남대문로5가)", "SIG_CD": "11140", "SIG_KOR_NM": "중구" }, "geometry": { "type": "Point", "coordinates": [ 126.975081, 37.556781 ] } },
{ "type": "Feature", "properties": { "STORE_NAME": "동대문공원", "STORE_TYPE": "general", "ADDRESS": "서울특별시 중구 장충단로 229 (광희동1가)", "SIG_CD": "11140", "SIG_KOR_NM": "중구" }, "geometry": { "type": "Point", "coordinates": [ 127.007191, 37.565133 ] } },
{ "type": "Feature", "properties": { "STORE_NAME": "을지로국제빌딩", "STORE_TYPE": "general", "ADDRESS": "서울특별시 중구 남대문로 109 (다동)", "SIG_CD": "11140", "SIG_KOR_NM": "중구" }, "geometry": { "type": "Point", "coordinates": [ 126.982219, 37.566952 ] } },
{ "type": "Feature", "properties": { "STORE_NAME": "동대입구역", "STORE_TYPE": "general", "ADDRESS": "서울특별시 중구 장충단로 166 (장충동1가)", "SIG_CD": "11140", "SIG_KOR_NM": "중구" }, "geometry": { "type": "Point", "coordinates": [ 127.006142, 37.559593 ] } },
{ "type": "Feature", "properties": { "STORE_NAME": "신당역사거리", "STORE_TYPE": "general", "ADDRESS": "서울특별시 중구 다산로 258 (흥인동)", "SIG_CD": "11140", "SIG_KOR_NM": "중구" }, "geometry": { "type": "Point", "coordinates": [ 127.01643, 37.565807 ] } },
{ "type": "Feature", "properties": { "STORE_NAME": "연세세브란스", "STORE_TYPE": "general", "ADDRESS": "서울특별시 중구 통일로 10 (남대문로5가)", "SIG_CD": "11140", "SIG_KOR_NM": "중구" }, "geometry": { "type": "Point", "coordinates": [ 126.97354, 37.557207 ] } },
{ "type": "Feature", "properties": { "STORE_NAME": "회현역", "STORE_TYPE": "general", "ADDRESS": "서울특별시 중구 퇴계로 72 (회현동) 리더스뷰남산", "SIG_CD": "11140", "SIG_KOR_NM": "중구" }, "geometry": { "type": "Point", "coordinates": [ 126.9807467, 37.5589809 ] } },
{ "type": "Feature", "properties": { "STORE_NAME": "을지로경기빌딩", "STORE_TYPE": "general", "ADDRESS": "서울특별시 중구 남대문로10길 9 (삼각동) 경기빌딩", "SIG_CD": "11140", "SIG_KOR_NM": "중구" }, "geometry": { "type": "Point", "coordinates": [ 126.983156, 37.567172 ] } },
{ "type": "Feature", "properties": { "STORE_NAME": "을지로2가", "STORE_TYPE": "general", "ADDRESS": "서울특별시 중구 삼일대로 358 (을지로2가)", "SIG_CD": "11140", "SIG_KOR_NM": "중구" }, "geometry": { "type": "Point", "coordinates": [ 126.988066, 37.566347 ] } },
{ "type": "Feature", "properties": { "STORE_NAME": "신세계본점6F", "STORE_TYPE": "general", "ADDRESS": "서울특별시 중구 퇴계로 77 (충무로1가)", "SIG_CD": "11140", "SIG_KOR_NM": "중구" }, "geometry": { "type": "Point", "coordinates": [ 126.980758, 37.560381 ] } },
{ "type": "Feature", "properties": { "STORE_NAME": "서울중앙우체국", "STORE_TYPE": "general", "ADDRESS": "서울특별시 중구 소공로 70 (충무로 1가) 서울 중앙 우체국", "SIG_CD": "11140", "SIG_KOR_NM": "중구" }, "geometry": { "type": "Point", "coordinates": [ 126.982117, 37.561678 ] } },
{ "type": "Feature", "properties": { "STORE_NAME": "한국프레스센터", "STORE_TYPE": "general", "ADDRESS": "서울특별시 중구 세종대로 124 (태평로1가)", "SIG_CD": "11140", "SIG_KOR_NM": "중구" }, "geometry": { "type": "Point", "coordinates": [ 126.977859, 37.567381 ] } },
{ "type": "Feature", "properties": { "STORE_NAME": "명동중앙로", "STORE_TYPE": "general", "ADDRESS": "서울특별시 중구 명동길 60 (명동 2가)", "SIG_CD": "11140", "SIG_KOR_NM": "중구" }, "geometry": { "type": "Point", "coordinates": [ 126.9857723, 37.5637485 ] } },
{ "type": "Feature", "properties": { "STORE_NAME": "약수역", "STORE_TYPE": "general", "ADDRESS": "서울특별시 중구 다산로 129 (신당동)", "SIG_CD": "11140", "SIG_KOR_NM": "중구" }, "geometry": { "type": "Point", "coordinates": [ 127.0107253, 37.555437 ] } },
{ "type": "Feature", "properties": { "STORE_NAME": "중구저동", "STORE_TYPE": "general", "ADDRESS": "서울특별시 중구 수표로 34 (저동2가)", "SIG_CD": "11140", "SIG_KOR_NM": "중구" }, "geometry": { "type": "Point", "coordinates": [ 126.9903382, 37.5643686 ] } },
{ "type": "Feature", "properties": { "STORE_NAME": "명동길", "STORE_TYPE": "general", "ADDRESS": "서울특별시 중구 명동10길 41", "SIG_CD": "11140", "SIG_KOR_NM": "중구" }, "geometry": { "type": "Point", "coordinates": [ 126.9858669, 37.5620695 ] } },
{ "type": "Feature", "properties": { "STORE_NAME": "소공로북창", "STORE_TYPE": "general", "ADDRESS": "서울특별시 중구 세종대로18길 32 (소공동) 삼원빌딩", "SIG_CD": "11140", "SIG_KOR_NM": "중구" }, "geometry": { "type": "Point", "coordinates": [ 126.9789237, 37.5636856 ] } },
{ "type": "Feature", "properties": { "STORE_NAME": "서소문로", "STORE_TYPE": "reserve", "ADDRESS": "서울특별시 중구 서소문로 120 (서소문동) 대한빌딩", "SIG_CD": "11140", "SIG_KOR_NM": "중구" }, "geometry": { "type": "Point", "coordinates": [ 126.974546, 37.563006 ] } },
{ "type": "Feature", "properties": { "STORE_NAME": "신당역", "STORE_TYPE": "general", "ADDRESS": "서울특별시 중구 퇴계로 385, 1층 (흥인동)", "SIG_CD": "11140", "SIG_KOR_NM": "중구" }, "geometry": { "type": "Point", "coordinates": [ 127.014554, 37.565522 ] } },
{ "type": "Feature", "properties": { "STORE_NAME": "명동메트로", "STORE_TYPE": "general", "ADDRESS": "서울특별시 중구 명동9가길 14 (을지로1가) 메트로호텔", "SIG_CD": "11140", "SIG_KOR_NM": "중구" }, "geometry": { "type": "Point", "coordinates": [ 126.983681, 37.565118 ] } },
{ "type": "Feature", "properties": { "STORE_NAME": "숭례문", "STORE_TYPE": "general", "ADDRESS": "서울특별시 중구 세종대로 17, 와이즈타워 1층 (남대문로5가)", "SIG_CD": "11140", "SIG_KOR_NM": "중구" }, "geometry": { "type": "Point", "coordinates": [ 126.9730952, 37.55874473 ] } },
{ "type": "Feature", "properties": { "STORE_NAME": "순화동더샵", "STORE_TYPE": "general", "ADDRESS": "서울특별시 중구 칠패로 27, 1층 (순화동)", "SIG_CD": "11140", "SIG_KOR_NM": "중구" }, "geometry": { "type": "Point", "coordinates": [ 126.971931, 37.560072 ] } },
{ "type": "Feature", "properties": { "STORE_NAME": "대한극장", "STORE_TYPE": "general", "ADDRESS": "서울특별시 중구 퇴계로 212 (필동 2가)", "SIG_CD": "11140", "SIG_KOR_NM": "중구" }, "geometry": { "type": "Point", "coordinates": [ 126.9952735, 37.56105065 ] } },
{ "type": "Feature", "properties": { "STORE_NAME": "소공동", "STORE_TYPE": "reserve", "ADDRESS": "서울특별시 중구 소공로 112 (소공동)", "SIG_CD": "11140", "SIG_KOR_NM": "중구" }, "geometry": { "type": "Point", "coordinates": [ 126.979157, 37.564448 ] } },
{ "type": "Feature", "properties": { "STORE_NAME": "무교동", "STORE_TYPE": "general", "ADDRESS": "서울특별시 중구 무교로 21 (무교동) 코오롱빌딩 1층", "SIG_CD": "11140", "SIG_KOR_NM": "중구" }, "geometry": { "type": "Point", "coordinates": [ 126.978738, 37.56781712 ] } },
{ "type": "Feature", "properties": { "STORE_NAME": "문화일보", "STORE_TYPE": "general", "ADDRESS": "서울특별시 중구 새문안로 22 (충정로1가) 문화일보", "SIG_CD": "11140", "SIG_KOR_NM": "중구" }, "geometry": { "type": "Point", "coordinates": [ 126.9686642, 37.56712291 ] } },
{ "type": "Feature", "properties": { "STORE_NAME": "태평로", "STORE_TYPE": "general", "ADDRESS": "서울특별시 중구 세종대로 72, 대영빌딩 1층 (태평로2가)", "SIG_CD": "11140", "SIG_KOR_NM": "중구" }, "geometry": { "type": "Point", "coordinates": [ 126.9767928, 37.56248285 ] } },
{ "type": "Feature", "properties": { "STORE_NAME": "퍼시픽타워", "STORE_TYPE": "general", "ADDRESS": "서울특별시 중구 세종대로9길 41, 퍼시픽타워 1층 (서소문동)", "SIG_CD": "11140", "SIG_KOR_NM": "중구" }, "geometry": { "type": "Point", "coordinates": [ 126.9730264, 37.56132157 ] } },
{ "type": "Feature", "properties": { "STORE_NAME": "남산단암", "STORE_TYPE": "general", "ADDRESS": "서울특별시 중구 소월로 10, 단암빌딩 (남대문로5가)", "SIG_CD": "11140", "SIG_KOR_NM": "중구" }, "geometry": { "type": "Point", "coordinates": [ 126.9754585, 37.55853622 ] } },
{ "type": "Feature", "properties": { "STORE_NAME": "황학캐슬", "STORE_TYPE": "general", "ADDRESS": "서울특별시 중구 청계천로 400 (황학동) 롯데캐슬베네치아", "SIG_CD": "11140", "SIG_KOR_NM": "중구" }, "geometry": { "type": "Point", "coordinates": [ 127.022905, 37.57124 ] } },
{ "type": "Feature", "properties": { "STORE_NAME": "서소문", "STORE_TYPE": "general", "ADDRESS": "서울특별시 중구 서소문로 130 (서소문동)", "SIG_CD": "11140", "SIG_KOR_NM": "중구" }, "geometry": { "type": "Point", "coordinates": [ 126.9755129, 37.5633773 ] } },
{ "type": "Feature", "properties": { "STORE_NAME": "명동미래", "STORE_TYPE": "general", "ADDRESS": "서울특별시 중구 명동 7길 8, 2층 (명동 1가)", "SIG_CD": "11140", "SIG_KOR_NM": "중구" }, "geometry": { "type": "Point", "coordinates": [ 126.984487, 37.564064 ] } },
{ "type": "Feature", "properties": { "STORE_NAME": "을지로삼화타워", "STORE_TYPE": "general", "ADDRESS": "서울특별시 중구 을지로5길 16 삼화타워1층", "SIG_CD": "11140", "SIG_KOR_NM": "중구" }, "geometry": { "type": "Point", "coordinates": [ 126.984707, 37.566902 ] } },
{ "type": "Feature", "properties": { "STORE_NAME": "소공로", "STORE_TYPE": "general", "ADDRESS": "서울특별시 중구 남대문로7길 19, 삼영빌딩 1층 일부 (소공동)", "SIG_CD": "11140", "SIG_KOR_NM": "중구" }, "geometry": { "type": "Point", "coordinates": [ 126.9807681, 37.5637273 ] } },
{ "type": "Feature", "properties": { "STORE_NAME": "서소문배재", "STORE_TYPE": "general", "ADDRESS": "서울특별시 중구 서소문로 99 (서소문동)", "SIG_CD": "11140", "SIG_KOR_NM": "중구" }, "geometry": { "type": "Point", "coordinates": [ 126.9721664, 37.5628481 ] } },
{ "type": "Feature", "properties": { "STORE_NAME": "을지로한국빌딩", "STORE_TYPE": "general", "ADDRESS": "서울특별시 중구 을지로 50, 1층 (을지로 2가)", "SIG_CD": "11140", "SIG_KOR_NM": "중구" }, "geometry": { "type": "Point", "coordinates": [ 126.98329, 37.565722 ] } },
{ "type": "Feature", "properties": { "STORE_NAME": "순화동에이스", "STORE_TYPE": "general", "ADDRESS": "서울특별시 중구 통일로 92 (순화동) KG타워", "SIG_CD": "11140", "SIG_KOR_NM": "중구" }, "geometry": { "type": "Point", "coordinates": [ 126.969144, 37.563528 ] } },
{ "type": "Feature", "properties": { "STORE_NAME": "시청", "STORE_TYPE": "general", "ADDRESS": "서울특별시 중구 을지로 19, 삼성화재삼성빌딩 1층 (을지로1가)", "SIG_CD": "11140", "SIG_KOR_NM": "중구" }, "geometry": { "type": "Point", "coordinates": [ 126.979808, 37.56629 ] } },
{ "type": "Feature", "properties": { "STORE_NAME": "시청플러스", "STORE_TYPE": "general", "ADDRESS": "서울특별시 중구 을지로 19, 삼성화재삼성빌딩 1층 (을지로1가)", "SIG_CD": "11140", "SIG_KOR_NM": "중구" }, "geometry": { "type": "Point", "coordinates": [ 126.980055, 37.566338 ] } },
{ "type": "Feature", "properties": { "STORE_NAME": "충무로역", "STORE_TYPE": "general", "ADDRESS": "서울특별시 중구 퇴계로 197, 충무빌딩 1층 (필동 2가)", "SIG_CD": "11140", "SIG_KOR_NM": "중구" }, "geometry": { "type": "Point", "coordinates": [ 126.993864, 37.561499 ] } },
{ "type": "Feature", "properties": { "STORE_NAME": "명동역", "STORE_TYPE": "general", "ADDRESS": "서울특별시 중구 퇴계로 101, 건물 전체 (충무로 1가)", "SIG_CD": "11140", "SIG_KOR_NM": "중구" }, "geometry": { "type": "Point", "coordinates": [ 126.983095, 37.560832 ] } },
{ "type": "Feature", "properties": { "STORE_NAME": "남산스테이트", "STORE_TYPE": "general", "ADDRESS": "서울특별시 중구 퇴계로 100 (회현동2가)", "SIG_CD": "11140", "SIG_KOR_NM": "중구" }, "geometry": { "type": "Point", "coordinates": [ 126.982791, 37.560205 ] } },
{ "type": "Feature", "properties": { "STORE_NAME": "명동입구", "STORE_TYPE": "general", "ADDRESS": "서울특별시 중구 남대문로 68-1 (명동2가)", "SIG_CD": "11140", "SIG_KOR_NM": "중구" }, "geometry": { "type": "Point", "coordinates": [ 126.982242, 37.563319 ] } },
{ "type": "Feature", "properties": { "STORE_NAME": "명일역", "STORE_TYPE": "general", "ADDRESS": "서울특별시 강동구 양재대로 1647 (명일동)", "SIG_CD": "11740", "SIG_KOR_NM": "강동구" }, "geometry": { "type": "Point", "coordinates": [ 127.143799, 37.55258 ] } },
{ "type": "Feature", "properties": { "STORE_NAME": "강동구청DT", "STORE_TYPE": "generalDT", "ADDRESS": "서울특별시 강동구 성내로 32 (성내동)", "SIG_CD": "11740", "SIG_KOR_NM": "강동구" }, "geometry": { "type": "Point", "coordinates": [ 127.123835, 37.529437 ] } },
{ "type": "Feature", "properties": { "STORE_NAME": "강동암사DT", "STORE_TYPE": "generalDT", "ADDRESS": "서울특별시 강동구 고덕로 43 (암사동)", "SIG_CD": "11740", "SIG_KOR_NM": "강동구" }, "geometry": { "type": "Point", "coordinates": [ 127.130065, 37.555054 ] } },
{ "type": "Feature", "properties": { "STORE_NAME": "강동역", "STORE_TYPE": "general", "ADDRESS": "서울특별시 강동구 천호대로 1089 (천호동, 강동 헤르셔)", "SIG_CD": "11740", "SIG_KOR_NM": "강동구" }, "geometry": { "type": "Point", "coordinates": [ 127.133086, 37.536047 ] } },
{ "type": "Feature", "properties": { "STORE_NAME": "둔촌동", "STORE_TYPE": "general", "ADDRESS": "서울특별시 강동구 양재대로 1303 (성내동) 평원빌딩", "SIG_CD": "11740", "SIG_KOR_NM": "강동구" }, "geometry": { "type": "Point", "coordinates": [ 127.133943, 37.522724 ] } },
{ "type": "Feature", "properties": { "STORE_NAME": "천호로데오", "STORE_TYPE": "reserve", "ADDRESS": "서울특별시 강동구 천호대로 1037 (천호동)", "SIG_CD": "11740", "SIG_KOR_NM": "강동구" }, "geometry": { "type": "Point", "coordinates": [ 127.127309400000101, 37.5378069 ] } },
{ "type": "Feature", "properties": { "STORE_NAME": "천호이마트", "STORE_TYPE": "general", "ADDRESS": "서울특별시 강동구 천호대로 1015-14 (천호동) 이마트별관", "SIG_CD": "11740", "SIG_KOR_NM": "강동구" }, "geometry": { "type": "Point", "coordinates": [ 127.125214, 37.538933 ] } },
{ "type": "Feature", "properties": { "STORE_NAME": "길동역", "STORE_TYPE": "general", "ADDRESS": "서울특별시 강동구 양재대로 1487 (길동)", "SIG_CD": "11740", "SIG_KOR_NM": "강동구" }, "geometry": { "type": "Point", "coordinates": [ 127.1399879, 37.5387433 ] } },
{ "type": "Feature", "properties": { "STORE_NAME": "상일동", "STORE_TYPE": "general", "ADDRESS": "서울특별시 강동구 상일로10길 36, 1~2층 (상일동)", "SIG_CD": "11740", "SIG_KOR_NM": "강동구" }, "geometry": { "type": "Point", "coordinates": [ 127.174258, 37.550072 ] } },
{ "type": "Feature", "properties": { "STORE_NAME": "올림픽공원북문", "STORE_TYPE": "general", "ADDRESS": "서울특별시 강동구 강동대로 171 (성내동)", "SIG_CD": "11740", "SIG_KOR_NM": "강동구" }, "geometry": { "type": "Point", "coordinates": [ 127.125932, 37.525403 ] } },
{ "type": "Feature", "properties": { "STORE_NAME": "천호역", "STORE_TYPE": "general", "ADDRESS": "서울특별시 강동구 천호대로 1012, 태승빌딩 (성내동)", "SIG_CD": "11740", "SIG_KOR_NM": "강동구" }, "geometry": { "type": "Point", "coordinates": [ 127.1245793, 37.53795191 ] } },
{ "type": "Feature", "properties": { "STORE_NAME": "명일이마트", "STORE_TYPE": "general", "ADDRESS": "서울특별시 강동구 동남로75길 5 (명일동) 명일이마트별관주차장", "SIG_CD": "11740", "SIG_KOR_NM": "강동구" }, "geometry": { "type": "Point", "coordinates": [ 127.155984, 37.553991 ] } },
{ "type": "Feature", "properties": { "STORE_NAME": "길동사거리", "STORE_TYPE": "general", "ADDRESS": "서울특별시 강동구 양재대로 1441, 1층 (길동)", "SIG_CD": "11740", "SIG_KOR_NM": "강동구" }, "geometry": { "type": "Point", "coordinates": [ 127.1383951, 37.534653600000013 ] } },
{ "type": "Feature", "properties": { "STORE_NAME": "신도림", "STORE_TYPE": "general", "ADDRESS": "서울특별시 구로구 경인로 610 (신도림동)", "SIG_CD": "11530", "SIG_KOR_NM": "구로구" }, "geometry": { "type": "Point", "coordinates": [ 126.883953, 37.505517 ] } },
{ "type": "Feature", "properties": { "STORE_NAME": "구로디지털타워", "STORE_TYPE": "general", "ADDRESS": "서울특별시 구로구 디지털로32길 30 (구로동)", "SIG_CD": "11530", "SIG_KOR_NM": "구로구" }, "geometry": { "type": "Point", "coordinates": [ 126.89648, 37.483432 ] } },
{ "type": "Feature", "properties": { "STORE_NAME": "오류동역", "STORE_TYPE": "general", "ADDRESS": "서울특별시 구로구 경인로 216 (오류동)", "SIG_CD": "11530", "SIG_KOR_NM": "구로구" }, "geometry": { "type": "Point", "coordinates": [ 126.8448614, 37.496215500000012 ] } },
{ "type": "Feature", "properties": { "STORE_NAME": "구로디지털로", "STORE_TYPE": "general", "ADDRESS": "서울특별시 구로구 디지털로33길 11, 에이스테크노8차 1층 (구로동)", "SIG_CD": "11530", "SIG_KOR_NM": "구로구" }, "geometry": { "type": "Point", "coordinates": [ 126.895587, 37.485911 ] } },
{ "type": "Feature", "properties": { "STORE_NAME": "신세계아이앤씨", "STORE_TYPE": "general", "ADDRESS": "서울특별시 구로구 디지털로31길 61, 신세계디지털센터 101호 (구로동)", "SIG_CD": "11530", "SIG_KOR_NM": "구로구" }, "geometry": { "type": "Point", "coordinates": [ 126.8916127, 37.48587904 ] } },
{ "type": "Feature", "properties": { "STORE_NAME": "구로에이스", "STORE_TYPE": "general", "ADDRESS": "서울특별시 구로구 디지털로 285, 에이스트윈타워1차 103호 (구로동)", "SIG_CD": "11530", "SIG_KOR_NM": "구로구" }, "geometry": { "type": "Point", "coordinates": [ 126.8944957, 37.48448329 ] } },
{ "type": "Feature", "properties": { "STORE_NAME": "구로하이엔드", "STORE_TYPE": "general", "ADDRESS": "서울특별시 구로구 디지털로26길 5, 에이스하이엔드타워1차 103호 (구로동)", "SIG_CD": "11530", "SIG_KOR_NM": "구로구" }, "geometry": { "type": "Point", "coordinates": [ 126.893136, 37.481618 ] } },
{ "type": "Feature", "properties": { "STORE_NAME": "현대디큐브2F", "STORE_TYPE": "general", "ADDRESS": "서울특별시 구로구 경인로 662 (신도림동)", "SIG_CD": "11530", "SIG_KOR_NM": "구로구" }, "geometry": { "type": "Point", "coordinates": [ 126.889225, 37.508636 ] } },
{ "type": "Feature", "properties": { "STORE_NAME": "구로호텔", "STORE_TYPE": "general", "ADDRESS": "서울특별시 구로구 디지털로32길 72, 구로호텔 1층 (구로동)", "SIG_CD": "11530", "SIG_KOR_NM": "구로구" }, "geometry": { "type": "Point", "coordinates": [ 126.8988591, 37.483129299999987 ] } },
{ "type": "Feature", "properties": { "STORE_NAME": "현대디큐브B2", "STORE_TYPE": "general", "ADDRESS": "서울특별시 구로구 경인로 662 (신도림동)", "SIG_CD": "11530", "SIG_KOR_NM": "구로구" }, "geometry": { "type": "Point", "coordinates": [ 126.889488, 37.508828 ] } },
{ "type": "Feature", "properties": { "STORE_NAME": "답십리역", "STORE_TYPE": "general", "ADDRESS": "서울특별시 동대문구 천호대로 263 (답십리동)", "SIG_CD": "11230", "SIG_KOR_NM": "동대문구" }, "geometry": { "type": "Point", "coordinates": [ 127.051106, 37.568466 ] } },
{ "type": "Feature", "properties": { "STORE_NAME": "경희대삼거리", "STORE_TYPE": "general", "ADDRESS": "서울특별시 동대문구 회기로 141 (회기동)", "SIG_CD": "11230", "SIG_KOR_NM": "동대문구" }, "geometry": { "type": "Point", "coordinates": [ 127.052017, 37.591531 ] } },
{ "type": "Feature", "properties": { "STORE_NAME": "외대정문", "STORE_TYPE": "general", "ADDRESS": "서울특별시 동대문구 이문로 93 (이문동)", "SIG_CD": "11230", "SIG_KOR_NM": "동대문구" }, "geometry": { "type": "Point", "coordinates": [ 127.0590302, 37.5953464 ] } },
{ "type": "Feature", "properties": { "STORE_NAME": "신설동역", "STORE_TYPE": "general", "ADDRESS": "서울특별시 동대문구 왕산로 19 (신설동)", "SIG_CD": "11230", "SIG_KOR_NM": "동대문구" }, "geometry": { "type": "Point", "coordinates": [ 127.0255446, 37.5767228 ] } },
{ "type": "Feature", "properties": { "STORE_NAME": "회기역사거리", "STORE_TYPE": "general", "ADDRESS": "서울특별시 동대문구 이문로 37 (회기동)", "SIG_CD": "11230", "SIG_KOR_NM": "동대문구" }, "geometry": { "type": "Point", "coordinates": [ 127.056098, 37.590784 ] } },
{ "type": "Feature", "properties": { "STORE_NAME": "외대", "STORE_TYPE": "general", "ADDRESS": "서울특별시 동대문구 휘경로 12-1 (이문동)", "SIG_CD": "11230", "SIG_KOR_NM": "동대문구" }, "geometry": { "type": "Point", "coordinates": [ 127.0614002, 37.59575188 ] } },
{ "type": "Feature", "properties": { "STORE_NAME": "장한평역", "STORE_TYPE": "general", "ADDRESS": "서울특별시 동대문구 장한로 10 (장안동)", "SIG_CD": "11230", "SIG_KOR_NM": "동대문구" }, "geometry": { "type": "Point", "coordinates": [ 127.065511, 37.562337 ] } },
{ "type": "Feature", "properties": { "STORE_NAME": "경희대", "STORE_TYPE": "general", "ADDRESS": "서울특별시 동대문구 경희대로 16-1 (회기동)", "SIG_CD": "11230", "SIG_KOR_NM": "동대문구" }, "geometry": { "type": "Point", "coordinates": [ 127.0528085, 37.5928812 ] } },
{ "type": "Feature", "properties": { "STORE_NAME": "뚝섬역", "STORE_TYPE": "general", "ADDRESS": "서울특별시 성동구 아차산로 42 (성수동1가)", "SIG_CD": "11200", "SIG_KOR_NM": "성동구" }, "geometry": { "type": "Point", "coordinates": [ 127.049042, 37.546432 ] } },
{ "type": "Feature", "properties": { "STORE_NAME": "황학사거리", "STORE_TYPE": "general", "ADDRESS": "서울특별시 성동구 왕십리로 410 (하왕십리동, 센트라스)", "SIG_CD": "11200", "SIG_KOR_NM": "성동구" }, "geometry": { "type": "Point", "coordinates": [ 127.023697, 37.567644 ] } },
{ "type": "Feature", "properties": { "STORE_NAME": "성수역", "STORE_TYPE": "general", "ADDRESS": "서울특별시 성동구 성수이로 94 (성수동2가)", "SIG_CD": "11200", "SIG_KOR_NM": "성동구" }, "geometry": { "type": "Point", "coordinates": [ 127.056943, 37.543193 ] } },
{ "type": "Feature", "properties": { "STORE_NAME": "상왕십리역", "STORE_TYPE": "general", "ADDRESS": "서울특별시 성동구 왕십리로 382 (하왕십리동)", "SIG_CD": "11200", "SIG_KOR_NM": "성동구" }, "geometry": { "type": "Point", "coordinates": [ 127.027907, 37.565169 ] } },
{ "type": "Feature", "properties": { "STORE_NAME": "왕십리역", "STORE_TYPE": "general", "ADDRESS": "서울특별시 성동구 왕십리로 326 (도선동)", "SIG_CD": "11200", "SIG_KOR_NM": "성동구" }, "geometry": { "type": "Point", "coordinates": [ 127.0339072, 37.5627541 ] } },
{ "type": "Feature", "properties": { "STORE_NAME": "엔터식스한양대", "STORE_TYPE": "general", "ADDRESS": "서울특별시 성동구 행당동 왕십리로 241 B1층", "SIG_CD": "11200", "SIG_KOR_NM": "성동구" }, "geometry": { "type": "Point", "coordinates": [ 127.04002, 37.5570379 ] } },
{ "type": "Feature", "properties": { "STORE_NAME": "한양대", "STORE_TYPE": "general", "ADDRESS": "서울특별시 성동구 왕십리로 225 (행당동)", "SIG_CD": "11200", "SIG_KOR_NM": "성동구" }, "geometry": { "type": "Point", "coordinates": [ 127.0421649, 37.55726984 ] } },
{ "type": "Feature", "properties": { "STORE_NAME": "엔터식스", "STORE_TYPE": "general", "ADDRESS": "서울특별시 성동구 왕십리광장로 17 (행당동)", "SIG_CD": "11200", "SIG_KOR_NM": "성동구" }, "geometry": { "type": "Point", "coordinates": [ 127.0383328, 37.56175811 ] } },
{ "type": "Feature", "properties": { "STORE_NAME": "성수이마트", "STORE_TYPE": "general", "ADDRESS": "서울특별시 성동구 뚝섬로 379 (성수동2가) 이마트 성수점", "SIG_CD": "11200", "SIG_KOR_NM": "성동구" }, "geometry": { "type": "Point", "coordinates": [ 127.0530083, 37.539699600000013 ] } },
{ "type": "Feature", "properties": { "STORE_NAME": "이태원역", "STORE_TYPE": "general", "ADDRESS": "서울특별시 용산구 이태원로 188 (이태원동)", "SIG_CD": "11170", "SIG_KOR_NM": "용산구" }, "geometry": { "type": "Point", "coordinates": [ 126.994789, 37.534273 ] } },
{ "type": "Feature", "properties": { "STORE_NAME": "한강진역R", "STORE_TYPE": "reserve", "ADDRESS": "서울특별시 용산구 이태원로 252 (한남동)", "SIG_CD": "11170", "SIG_KOR_NM": "용산구" }, "geometry": { "type": "Point", "coordinates": [ 127.00098, 37.537131 ] } },
{ "type": "Feature", "properties": { "STORE_NAME": "용산역써밋R", "STORE_TYPE": "reserve", "ADDRESS": "서울특별시 용산구 한강대로 69 (한강로2가, 용산푸르지오써밋)", "SIG_CD": "11170", "SIG_KOR_NM": "용산구" }, "geometry": { "type": "Point", "coordinates": [ 126.965401, 37.527586 ] } },
{ "type": "Feature", "properties": { "STORE_NAME": "이촌", "STORE_TYPE": "general", "ADDRESS": "서울특별시 용산구 이촌로 276 (이촌동)", "SIG_CD": "11170", "SIG_KOR_NM": "용산구" }, "geometry": { "type": "Point", "coordinates": [ 126.977271, 37.518605 ] } },
{ "type": "Feature", "properties": { "STORE_NAME": "신용산역", "STORE_TYPE": "general", "ADDRESS": "서울특별시 용산구 한강대로 95 (한강로2가, 래미안용산)", "SIG_CD": "11170", "SIG_KOR_NM": "용산구" }, "geometry": { "type": "Point", "coordinates": [ 126.966757, 37.528702 ] } },
{ "type": "Feature", "properties": { "STORE_NAME": "용산파크타워", "STORE_TYPE": "general", "ADDRESS": "서울특별시 용산구 서빙고로 67 (용산동5가, 파크타워)", "SIG_CD": "11170", "SIG_KOR_NM": "용산구" }, "geometry": { "type": "Point", "coordinates": [ 126.970389, 37.523818 ] } },
{ "type": "Feature", "properties": { "STORE_NAME": "남영동", "STORE_TYPE": "general", "ADDRESS": "서울특별시 용산구 한강대로 275 (갈월동)", "SIG_CD": "11170", "SIG_KOR_NM": "용산구" }, "geometry": { "type": "Point", "coordinates": [ 126.972242, 37.542831 ] } },
{ "type": "Feature", "properties": { "STORE_NAME": "한남동R", "STORE_TYPE": "reserve", "ADDRESS": "서울특별시 용산구 독서당로 94 (한남동)", "SIG_CD": "11170", "SIG_KOR_NM": "용산구" }, "geometry": { "type": "Point", "coordinates": [ 127.010919, 37.53485 ] } },
{ "type": "Feature", "properties": { "STORE_NAME": "서울타워", "STORE_TYPE": "general", "ADDRESS": "서울특별시 용산구 남산공원길 105 (용산동2가) YTN서울타워 1층", "SIG_CD": "11170", "SIG_KOR_NM": "용산구" }, "geometry": { "type": "Point", "coordinates": [ 126.988317, 37.551102 ] } },
{ "type": "Feature", "properties": { "STORE_NAME": "서울역동자동", "STORE_TYPE": "general", "ADDRESS": "서울특별시 용산구 한강대로 372 (동자동)", "SIG_CD": "11170", "SIG_KOR_NM": "용산구" }, "geometry": { "type": "Point", "coordinates": [ 126.972694, 37.551752 ] } },
{ "type": "Feature", "properties": { "STORE_NAME": "이태원거리", "STORE_TYPE": "general", "ADDRESS": "서울특별시 용산구 이태원로 213, 1,2층 (한남동)", "SIG_CD": "11170", "SIG_KOR_NM": "용산구" }, "geometry": { "type": "Point", "coordinates": [ 126.99756, 37.534988 ] } },
{ "type": "Feature", "properties": { "STORE_NAME": "순천향입구", "STORE_TYPE": "general", "ADDRESS": "서울특별시 용산구 대사관로 67 (한남동)", "SIG_CD": "11170", "SIG_KOR_NM": "용산구" }, "geometry": { "type": "Point", "coordinates": [ 127.00563, 37.533394 ] } },
{ "type": "Feature", "properties": { "STORE_NAME": "숙대", "STORE_TYPE": "general", "ADDRESS": "서울특별시 용산구 청파로47길 57 (청파동3가)", "SIG_CD": "11170", "SIG_KOR_NM": "용산구" }, "geometry": { "type": "Point", "coordinates": [ 126.9672252, 37.54460479 ] } },
{ "type": "Feature", "properties": { "STORE_NAME": "동빙고", "STORE_TYPE": "general", "ADDRESS": "서울특별시 용산구 장문로 12 (동빙고동)", "SIG_CD": "11170", "SIG_KOR_NM": "용산구" }, "geometry": { "type": "Point", "coordinates": [ 126.991782, 37.5289857 ] } },
{ "type": "Feature", "properties": { "STORE_NAME": "숙대입구역", "STORE_TYPE": "general", "ADDRESS": "서울특별시 용산구 한강대로 291 (갈월동)", "SIG_CD": "11170", "SIG_KOR_NM": "용산구" }, "geometry": { "type": "Point", "coordinates": [ 126.971891, 37.544118 ] } },
{ "type": "Feature", "properties": { "STORE_NAME": "용산아이파크몰", "STORE_TYPE": "general", "ADDRESS": "서울특별시 용산구 한강대로23길 55", "SIG_CD": "11170", "SIG_KOR_NM": "용산구" }, "geometry": { "type": "Point", "coordinates": [ 126.964044699999903, 37.5288539 ] } },
{ "type": "Feature", "properties": { "STORE_NAME": "동부이촌동", "STORE_TYPE": "general", "ADDRESS": "서울특별시 용산구 이촌로 198 (이촌동)", "SIG_CD": "11170", "SIG_KOR_NM": "용산구" }, "geometry": { "type": "Point", "coordinates": [ 126.96905, 37.52111 ] } },
{ "type": "Feature", "properties": { "STORE_NAME": "상봉", "STORE_TYPE": "general", "ADDRESS": "서울특별시 중랑구 상봉로 131 (상봉동, 상봉 듀오트리스 주상복합)", "SIG_CD": "11260", "SIG_KOR_NM": "중랑구" }, "geometry": { "type": "Point", "coordinates": [ 127.092509, 37.597842 ] } },
{ "type": "Feature", "properties": { "STORE_NAME": "중랑역", "STORE_TYPE": "general", "ADDRESS": "서울특별시 중랑구 망우로30길 3 (상봉동)", "SIG_CD": "11260", "SIG_KOR_NM": "중랑구" }, "geometry": { "type": "Point", "coordinates": [ 127.0747358, 37.5930326 ] } },
{ "type": "Feature", "properties": { "STORE_NAME": "중랑구청", "STORE_TYPE": "general", "ADDRESS": "서울특별시 중랑구 신내로 72", "SIG_CD": "11260", "SIG_KOR_NM": "중랑구" }, "geometry": { "type": "Point", "coordinates": [ 127.0957558, 37.60538908 ] } },
{ "type": "Feature", "properties": { "STORE_NAME": "사가정역", "STORE_TYPE": "general", "ADDRESS": "서울특별시 중랑구 면목로 310", "SIG_CD": "11260", "SIG_KOR_NM": "중랑구" }, "geometry": { "type": "Point", "coordinates": [ 127.087966, 37.579594 ] } },
{ "type": "Feature", "properties": { "STORE_NAME": "상봉역", "STORE_TYPE": "general", "ADDRESS": "서울특별시 중랑구 망우로 307, ,3,4번지 (상봉동)", "SIG_CD": "11260", "SIG_KOR_NM": "중랑구" }, "geometry": { "type": "Point", "coordinates": [ 127.08647, 37.59689 ] } },
{ "type": "Feature", "properties": { "STORE_NAME": "묵동이마트", "STORE_TYPE": "general", "ADDRESS": "서울특별시 중랑구 동일로 932, 묵동이마트 B1층 (묵동)", "SIG_CD": "11260", "SIG_KOR_NM": "중랑구" }, "geometry": { "type": "Point", "coordinates": [ 127.077484, 37.613433 ] } }
]
}
